"year","team_id","school","mascot","abbreviation","alt_name1","alt_name2","alt_name3","conference","division","color","alt_color","venue_id","venue_name","city","state","zip","country_code","timezone","latitude","longitude","elevation","capacity","year_constructed","grass","dome"
2000,2005,"Air Force","Falcons","AFA",NA,"AFA","Air Force","Mountain West",NA,"#004a7b","#ffffff",3713,"Falcon Stadium","Colorado Springs","CO","80840","US","America/Denver",38.9969701,-104.8436165,"2024.875732",46692,1962,FALSE,FALSE
2000,2006,"Akron","Zips","AKR",NA,"AKR","Akron","Mid-American","East","#00285e","#84754e",3768,"Summa Field at InfoCision Stadium","Akron","OH","44399","US","America/New_York",41.0725534,-81.5083408,"321.2875061",30000,2009,FALSE,FALSE
2000,333,"Alabama","Crimson Tide","ALA",NA,"ALA","Alabama","SEC","West","#690014","#f1f2f3",3657,"Bryant Denny Stadium","Tuscaloosa","AL","35487","US","America/Chicago",33.2082752,-87.5503836,"70.05136108",101821,1929,TRUE,FALSE
2000,12,"Arizona","Wildcats","ARIZ",NA,"ARIZ","Arizona","Pac-10",NA,"#002449","#00205b",3619,"Arizona Stadium","Tucson","AZ","85721","US","America/Phoenix",32.2288054,-110.9488677,"742.1530151",50782,1928,FALSE,FALSE
2000,9,"Arizona State","Sun Devils","ASU",NA,"ASU","Arizona State","Pac-10",NA,"#942139","#f1f2f3",3947,"Sun Devil Stadium","Tempe","AZ","85287","US","America/Phoenix",33.4264471,-111.9325005,"360.1569519",65870,1958,FALSE,FALSE
2000,8,"Arkansas","Razorbacks","ARK",NA,"ARK","Arkansas","SEC","West","#9c1831","#000000",3887,"Donald W. Reynolds Razorback Stadium Frank Broyles Field","Fayetteville","AR","72702","US","America/Chicago",36.0680662,-94.1789534,"403.7972412",80000,1938,FALSE,FALSE
2000,2032,"Arkansas State","Red Wolves","ARST",NA,"ARST","Arkansas State","Big West",NA,"#e81018","#000000",3625,"Centennial Bank Stadium","Jonesboro","AR","72404","US","America/Chicago",35.8488977,-90.6677436,"89.52690887",30382,1974,FALSE,FALSE
2000,349,"Army","Black Knights","ARMY",NA,"ARMY","Army","Conference USA",NA,"#ce9c00","#231f20",3841,"Blaik Field at Michie Stadium","West Point","NY","10996","US","America/New_York",41.3874924,-73.9640891,"99.21277618",38000,1924,FALSE,FALSE
2000,2,"Auburn","Tigers","AUB",NA,"AUB","Auburn","SEC","West","#03244d","#f1f2f3",3785,"Jordan-Hare Stadium","Auburn","AL","36849","US","America/Chicago",32.6025532,-85.4897479,"201.1737976",87451,1939,TRUE,FALSE
2000,2050,"Ball State","Cardinals","BALL",NA,"BALL","Ball State","Mid-American","West","#DA0000","#ffffff",3919,"Scheumann Stadium","Muncie","IN","47306","US","America/Indiana/Indianapolis",40.2159422,-85.4161148,"285.481781",22500,1967,FALSE,FALSE
2000,239,"Baylor","Bears","BAY",NA,"BAY","Baylor","Big 12","South","#004834","#ffb81c",4727,"McLane Stadium","Waco","TX","76704","US","America/Chicago",31.5582015,-97.1156702,"117.0538101",45140,2014,FALSE,FALSE
2000,68,"Boise State","Broncos","BSU",NA,"BSU","Boise State","Big West",NA,"#09347A","#d8d9da",3653,"Albertsons Stadium","Boise","ID","83725","US","America/Boise",43.6028839,-116.1958882,"823.2221069",36387,1970,FALSE,FALSE
2000,103,"Boston College","Eagles","BC",NA,"BC","Boston College","Big East",NA,"#88001a","#a39161",3615,"Alumni Stadium","Chestnut Hill","MA","2467 ","US","America/New_York",42.335104,-71.1664413,"39.82634354",44500,1957,FALSE,FALSE
2000,189,"Bowling Green","Falcons","BGSU","Bowling Green State","BGSU","Bowling Green","Mid-American","East","#2b1000","#492000",3700,"Doyt Perry Stadium","Bowling Green","OH","43403","US","America/New_York",41.3780114,-83.6225,"205.9057465",24000,1966,FALSE,FALSE
2000,2084,"Buffalo","Bulls","BUFF",NA,"BUFF","Buffalo","Mid-American","East","#041A9B","#ebebeb",3965,"UB Stadium","Amherst","NY","14260","US","America/New_York",42.9991334,-78.7775113,"181.5759735",30270,1993,FALSE,FALSE
2000,252,"BYU","Cougars","BYU","Brigham Young","BYU","BYU","Mountain West",NA,"#001E4C","#ffffff",3801,"LaVell Edwards Stadium","Provo","UT","84602","US","America/Denver",40.2575347,-111.6545247,"1412.097046",63470,1964,FALSE,FALSE
2000,25,"California","Golden Bears","CAL",NA,"CAL","Cal","Pac-10",NA,"#031522","#ffc423",3831,"California Memorial Stadium","Berkeley","CA","94720","US","America/Los_Angeles",37.8710434,-122.2507729,"125.3108063",62467,1923,FALSE,FALSE
2000,2117,"Central Michigan","Chippewas","CMU",NA,"CMU","Cent Michigan","Mid-American","West","#6a0032","#ffffff",3786,"Kelly/Shorts Stadium","Mount Pleasant","MI","48859","US","America/Detroit",43.5777313,-84.7709904,"240.9007721",30255,1972,FALSE,FALSE
2000,2132,"Cincinnati","Bearcats","CIN",NA,"CIN","Cincinnati","Conference USA",NA,"#000000","#717073",3854,"Nippert Stadium","Cincinnati","OH","45221","US","America/New_York",39.1312495,-84.5161913,"230.0660553",40000,1915,FALSE,FALSE
2000,228,"Clemson","Tigers","CLEM",NA,"CLEM","Clemson","ACC",NA,"#F66733","#522d80",3836,"Memorial Stadium","Clemson","SC","29634","US","America/New_York",34.6787737,-82.8432428,"205.6452179",81500,1942,FALSE,FALSE
2000,38,"Colorado","Buffaloes","COLO",NA,"COLO","Colorado","Big 12","North","#d1c57e","#ffd200",3726,"Folsom Field","Boulder","CO","80309","US","America/Denver",40.0094746,-105.266905,"1634.041138",50183,1924,FALSE,FALSE
2000,36,"Colorado State","Rams","CSU",NA,"CSU","Colorado State","Mountain West",NA,"#004537","#ffc425",3761,"Sonny Lubick Field at Hughes Stadium","Fort Collins","CO","80526","US","America/Denver",40.5621183,-105.1416248,"1574.920898",34400,1968,FALSE,FALSE
2000,41,"Connecticut","Huskies","CONN",NA,"CONN","UConn","FBS Independents",NA,"#001d40","#f1f2f3",3892,"Rentschler Field","East Hartford","CT","6118 ","US","America/New_York",41.7595675,-72.6187728,"6.515614986",40000,2003,FALSE,FALSE
2000,150,"Duke","Blue Devils","DUKE",NA,"DUKE","Duke","ACC",NA,"#001A57","#f1f2f3",3982,"Wallace Wade Stadium","Durham","NC","27708","US","America/New_York",35.9953688,-78.9417564,"103.0028152",40004,1929,FALSE,FALSE
2000,151,"East Carolina","Pirates","ECU",NA,"ECU","ECU","Conference USA",NA,"#4b1869","#f0907b",3699,"Dowdy-Ficklen Stadium","Greenville","NC","27858","US","America/New_York",35.5968486,-77.364564,"19.0564537",50000,1963,FALSE,FALSE
2000,2199,"Eastern Michigan","Eagles","EMU",NA,"EMU","E Michigan","Mid-American","West","#00331b","#f0f0f0",3912,"Rynearson Stadium","Ypsilanti","MI","48197","US","America/Detroit",42.256126,-83.647285,"241.248764",30200,1969,FALSE,FALSE
2000,57,"Florida","Gators","FLA",NA,"FLA","Florida","SEC","East","#0021A5","#0021a5",3634,"Ben Hill Griffin Stadium","Gainesville","FL","32653","US","America/New_York",29.6499357,-82.3485788,"44.97250748",88548,1930,TRUE,FALSE
2000,52,"Florida State","Seminoles","FSU",NA,"FSU","FSU","ACC",NA,"#782F40","#ceb888",3697,"Bobby Bowden Field at Doak Campbell Stadium","Tallahassee","FL","32306","US","America/New_York",30.4381692,-84.3044032,"19.55942535",79560,1950,FALSE,FALSE
2000,278,"Fresno State","Bulldogs","FRES",NA,"FRES","Fresno State","Western Athletic",NA,"#c41230","#231f20",3660,"Bulldog Stadium","Fresno","CA","93740","US","America/Los_Angeles",36.8143527,-119.7580092,"102.564064",41031,1980,FALSE,FALSE
2000,61,"Georgia","Bulldogs","UGA",NA,"UGA","Georgia","SEC","East","#CC0000","#000000",3917,"Sanford Stadium","Athens","GA","30602","US","America/New_York",33.9498197,-83.3733813,"186.1120758",92746,1929,TRUE,FALSE
2000,59,"Georgia Tech","Yellow Jackets","GT",NA,"GT","Georgia Tech","ACC",NA,"#00223e","#002c56",721,"Bobby Dodd Stadium at Historic Grant Field","Atlanta","GA","30332","US","America/New_York",33.7724449,-84.3928054,"279.300415",55000,1913,TRUE,FALSE
2000,62,"Hawai'i","Rainbow Warriors","HAW",NA,"HAW","Hawai'i","Western Athletic",NA,"#003420","#ffffff",3610,"Aloha Stadium","Honolulu","HI","96818","US","Pacific/Honolulu",21.3728014,-157.9299645,"10.26500511",50000,1975,FALSE,FALSE
2000,248,"Houston","Cougars","HOU",NA,"HOU","Houston","Conference USA",NA,"#C90822","#231f20",453,"Robertson Stadium","Houston","TX","77004","US","America/Chicago",29.722053,-95.349175,"9.6",32000,1942,FALSE,FALSE
2000,70,"Idaho","Vandals","IDHO",NA,"IDHO","Idaho","Big West",NA,"#000000","#8c6e4a",3791,"Kibbie Dome","Moscow","ID","83843","US","America/Los_Angeles",46.7262921,-117.0173713,"794.4794922",16000,1975,FALSE,TRUE
2000,356,"Illinois","Fighting Illini","ILL",NA,"ILL","Illinois","Big Ten",NA,"#f77329","#fa6300",3597,"Alumni Memorial Field","Lexington","VA","24450","US","America/New_York",37.788983,-79.43505,"294.958252",10000,1962,TRUE,FALSE
2000,84,"Indiana","Hoosiers","IND",NA,"IND","Indiana","Big Ten",NA,"#7D110C","#eeedeb",3830,"Memorial Stadium","Bloomington","IN","47408","US","America/Indiana/Indianapolis",39.1808959,-86.5256217,"231.6500854",52656,1960,FALSE,FALSE
2000,2294,"Iowa","Hawkeyes","IOWA",NA,"IOWA","Iowa","Big Ten",NA,"#000000","#ffe100",3793,"Kinnick Stadium","Iowa City","IA","52242","US","America/Chicago",41.6586045,-91.5510829,"220.6357727",69250,1929,FALSE,FALSE
2000,66,"Iowa State","Cyclones","ISU",NA,"ISU","Iowa State","Big 12","North","#660015","#830b2c",3772,"Jack Trice Stadium","Ames","IA","50011","US","America/Chicago",42.0139977,-93.6357716,"274.9135437",61500,1975,FALSE,FALSE
2000,2305,"Kansas","Jayhawks","KU",NA,"KU","Kansas","Big 12","North","#0022B4","#e8000d",3833,"Memorial Stadium","Lawrence","KS","66045","US","America/Chicago",38.9629418,-95.2463686,"274.855957",47000,1921,FALSE,FALSE
2000,2306,"Kansas State","Wildcats","KSU",NA,"KSU","Kansas State","Big 12","North","#633194","#e7d2ad",3636,"Bill Snyder Family Football Stadium","Manhattan","KS","66502","US","America/Chicago",39.2020096,-96.5938395,"328.0574646",50000,1968,FALSE,FALSE
2000,2309,"Kent State","Golden Flashes","KENT",NA,"KENT","Kent State","Mid-American","East","#002445","#f0b510",3696,"Dix Stadium","Kent","OH","44242","US","America/New_York",41.1390935,-81.31346,"321.3641663",25319,1969,FALSE,FALSE
2000,96,"Kentucky","Wildcats","UK",NA,"UK","Kentucky","SEC","East","#005DAA","#ffffff",3683,"Commonwealth Stadium","Lexington","KY","40506","US","America/New_York",38.0220905,-84.5053408,"307.4248962",61000,1973,TRUE,FALSE
2000,309,"Louisiana","Ragin' Cajuns","ULL","UL Lafayette","ULL","Louisiana","FBS Independents",NA,"#ce2842",NA,3666,"Cajun Field","Lafayette","LA","70506","US","America/Chicago",30.2158434,-92.0417371,"3.556508303",41426,1971,FALSE,FALSE
2000,2433,"Louisiana Monroe","Warhawks","ULM","La.-Monroe","ULM","UL Monroe","FBS Independents",NA,"#231F20","#b18445",3817,"Malone Stadium","Monroe","LA","71209","US","America/Chicago",32.5308089,-92.0660602,"22.998209",30427,1978,FALSE,FALSE
2000,2348,"Louisiana Tech","Bulldogs","LT",NA,"LT","LA Tech","FBS Independents",NA,"#002d65","#d3313a",3776,"Joe Aillet Stadium","Ruston","LA","71272","US","America/Chicago",32.5321487,-92.6560019,"72.87982941",28019,1968,FALSE,FALSE
2000,97,"Louisville","Cardinals","LOU",NA,"LOU","Louisville","Conference USA",NA,"#ad000a","#cccccc",3873,"Papa John's Cardinal Stadium","Louisville","KY","40292","US","America/Kentucky/Louisville",38.2057621,-85.7588141,"138.5615997",60000,1998,FALSE,FALSE
2000,99,"LSU","Tigers","LSU","Louisiana State","LSU","LSU","SEC","West","#fdd023","#2b0d57",3958,"Tiger Stadium","Baton Rouge","LA","70803","US","America/Chicago",30.412035,-91.1838163,"7.640734673",102321,1924,TRUE,FALSE
2000,276,"Marshall","Thundering Herd","MRSH",NA,"MRSH","Marshall","Mid-American","East","#186329","#be854c",3775,"Joan C. Edwards Stadium","Huntington","WV","25755","US","America/New_York",38.4247042,-82.4214412,"163.7328186",38016,1991,FALSE,FALSE
2000,120,"Maryland","Terrapins","MD",NA,"MD","Maryland","ACC",NA,"#D5002B","#ffcd00",3665,"Maryland Stadium","College Park","MD","20742","US","America/New_York",38.9903332,-76.9473792,"32.68748093",51802,1950,FALSE,FALSE
2000,235,"Memphis","Tigers","MEM",NA,"MEM","Memphis","Conference USA",NA,"#003087","#898d8d",3805,"Liberty Bowl Memorial Stadium","Memphis","TN","38152","US","America/Chicago",35.1209429,-89.977147,"90.62445831",58325,1965,FALSE,FALSE
2000,2390,"Miami","Hurricanes","MIAMI","Miami (FL)","MIAMI","Miami","Big East",NA,"#004325","#f0f0f0",3948,"Hard Rock Stadium","Miami Gardens","FL","33299","US","America/New_York",25.9579665,-80.2388604,"2.624486446",64767,1987,TRUE,FALSE
2000,193,"Miami (OH)","RedHawks","M-OH",NA,"M-OH","Miami (OH)","Mid-American","East","#a4000c","#f0f0f0",3996,"Yager Stadium","Oxford","OH","45056","US","America/New_York",39.5197009,-84.7330255,"242.2643585",24286,1983,FALSE,FALSE
2000,130,"Michigan","Wolverines","MICH",NA,"MICH","Michigan","Big Ten",NA,"#00274c","#00274c",3558,"Michigan Stadium","Ann Arbor","MI","48109","US","America/Detroit",42.2658365,-83.7486956,"255.5500031",107601,1927,FALSE,FALSE
2000,127,"Michigan State","Spartans","MSU",NA,"MSU","Michigan State","Big Ten",NA,"#18453B","#ffffff",3936,"Spartan Stadium","East Lansing","MI","48824","US","America/Detroit",42.7281474,-84.4848526,"254.8794861",75005,1923,FALSE,FALSE
2000,2393,"Middle Tennessee","Blue Raiders","MTSU","Middle Tennessee State","MTSU","Mid Tennessee","FBS Independents",NA,"#0079C2","#c3c5c8",3725,"Johnny Red"""" Floyd Stadium""""","Murfreesboro","TN","37132","US","America/Chicago",35.8511463,-86.3681649,"191.7279816",30788,1933,FALSE,FALSE
2000,135,"Minnesota","Golden Gophers","MINN",NA,"MINN","Minnesota","Big Ten",NA,"#981a31","#981a31",3953,"TCF Bank Stadium","Minneapolis","MN","55488","US","America/Chicago",44.976525,-93.2245462,"254.3902283",50850,2009,FALSE,FALSE
2000,344,"Mississippi State","Bulldogs","MSST",NA,"MSST","Miss St","SEC","West","#762123","#c8c8c8",3693,"Davis Wade Stadium","Starkville","MS","39762","US","America/Chicago",33.4563403,-88.7933652,"110.2742081",61337,1914,TRUE,FALSE
2000,142,"Missouri","Tigers","MIZ",NA,"MIZ","Missouri","Big 12","North","#000000","#000000",3838,"Faurot Field","Columbia","MO","65211","US","America/Chicago",38.9358491,-92.3332009,"212.6865692",71168,1927,FALSE,FALSE
2000,2426,"Navy","Midshipmen","NAVY",NA,"NAVY","Navy","FBS Independents",NA,"#131630","#b6a77c",3852,"Navy-Marine Corps Memorial Stadium","Annapolis","MD","21402","US","America/New_York",38.9846985,-76.5076335,"10.74990082",34000,1959,TRUE,FALSE
2000,152,"NC State","Wolfpack","NCST","North Carolina St.","NCST","NC State","ACC",NA,"#EF1216","#231f20",3670,"Carter-Finley Stadium","Raleigh","NC","27695","US","America/New_York",35.8008001,-78.7195655,"117.0089951",58000,1966,FALSE,FALSE
2000,158,"Nebraska","Cornhuskers","NEB",NA,"NEB","Nebraska","Big 12","North","#F20017","#f5f1e7",3834,"Memorial Stadium","Lincoln","NE","68588","US","America/Chicago",40.820682,-96.705594,"354.9318848",85458,1923,FALSE,FALSE
2000,2440,"Nevada","Wolf Pack","NEV",NA,"NEV","Nevada","Western Athletic",NA,"#153E5F","#8e9295",3816,"Mackay Stadium","Reno","NV","89557","US","America/Los_Angeles",39.5469459,-119.8175435,"1406.57605",27000,1966,FALSE,FALSE
2000,167,"New Mexico","Lobos","UNM",NA,"UNM","New Mexico","Mountain West",NA,"#000000","#231f20",3971,"University Stadium","Albuquerque","NM","87131","US","America/Denver",35.0669479,-106.6283225,"1554.471924",39224,1960,FALSE,FALSE
2000,166,"New Mexico State","Aggies","NMSU",NA,"NMSU","New Mexico St","Big West",NA,"#891216","#000000",3601,"Aggie Memorial Stadium","Las Cruces","NM","88003","US","America/Denver",32.2796202,-106.7411148,"1208.201294",28853,1978,FALSE,FALSE
2000,153,"North Carolina","Tar Heels","UNC",NA,"UNC","UNC","ACC",NA,"#99bfe5","#13294b",3787,"Kenan Memorial Stadium","Chapel Hill","NC","27515","US","America/New_York",35.9069294,-79.0478889,"127.7569809",50500,1927,FALSE,FALSE
2000,2459,"Northern Illinois","Huskies","NIU",NA,"NIU","N Illinois","Mid-American","West","#F1122C","#cc0000",3764,"Brigham Field at Huskie Stadium","DeKalb","IL","60115","US","America/Chicago",41.9339586,-88.7778357,"267.4530029",23595,1965,FALSE,FALSE
2000,249,"North Texas","Mean Green","UNT",NA,"UNT","North Texas","Big West",NA,"#00853D","#000000",3825,"Apogee Stadium","Denton","TX","76210","US","America/Chicago",33.203899,-97.159245,"198.6871948",30850,2011,FALSE,FALSE
2000,77,"Northwestern","Wildcats","NW",NA,"NW","Northwestern","Big Ten",NA,"#372286","#d6cac1",3911,"Ryan Field","Evanston","IL","60208","US","America/Chicago",42.0653994,-87.6924751,"181.2376099",47130,1926,FALSE,FALSE
2000,87,"Notre Dame","Fighting Irish","ND",NA,"ND","Notre Dame","FBS Independents",NA,"#00122b","#ae9142",3855,"Notre Dame Stadium","Notre Dame","IN","46556","US","America/Indiana/Indianapolis",41.698378,-86.2339425,"222.645401",80795,1930,FALSE,FALSE
2000,195,"Ohio","Bobcats","OHIO",NA,"OHIO","Ohio","Mid-American","East","#295A29","#e4bb85",3876,"Peden Stadium","Athens","OH","45701","US","America/New_York",39.3212794,-82.1034315,"194.230896",24000,1929,FALSE,FALSE
2000,194,"Ohio State","Buckeyes","OSU",NA,"OSU","OSU","Big Ten",NA,"#DE3121","#666666",3861,"Ohio Stadium","Columbus","OH","43210","US","America/New_York",40.0016447,-83.0197266,"216.6770325",102780,1922,FALSE,FALSE
2000,201,"Oklahoma","Sooners","OKLA",NA,"OKLA","Oklahoma","Big 12","South","#7b0000","#cccccc",3835,"Gaylord Family Oklahoma Memorial Stadium","Norman","OK","73019","US","America/Chicago",35.2058537,-97.4423145,"355.0962524",86112,1925,FALSE,FALSE
2000,197,"Oklahoma State","Cowboys","OKST",NA,"OKST","Oklahoma State","Big 12","South","#FF6500","#ff9900",3646,"Boone Pickens Stadium","Stillwater","OK","74078","US","America/Chicago",36.125673,-97.066513,"276.4808655",55509,1919,FALSE,FALSE
2000,145,"Ole Miss","Rebels","MISS",NA,"MISS","Ole Miss","SEC","West","#001148","#00205b",3974,"Vaught-Hemingway Stadium","Oxford","MS","38677","US","America/Chicago",34.3619837,-89.5342076,"146.8517151",64038,1915,TRUE,FALSE
2000,2483,"Oregon","Ducks","ORE",NA,"ORE","Oregon","Pac-10",NA,"#044520","#fee123",3626,"Autzen Stadium","Eugene","OR","97401","US","America/Los_Angeles",44.0582712,-123.0684883,"127.4198303",54000,1967,FALSE,FALSE
2000,204,"Oregon State","Beavers","ORST",NA,"ORST","Oregon State","Pac-10",NA,"#c34500","#dea076",3893,"Reser Stadium","Corvallis","OR","97331","US","America/Los_Angeles",44.5594559,-123.2814341,"66.90744781",43363,1953,FALSE,FALSE
2000,213,"Penn State","Nittany Lions","PSU",NA,"PSU","Penn State","Big Ten",NA,"#00265D","#002e5c",3632,"Beaver Stadium","University Park","PA","16802","US","America/New_York",40.8121958,-77.8561023,"354.1551514",106572,1960,FALSE,FALSE
2000,221,"Pittsburgh","Panthers","PITT","Pitt","PITT","Pitt","Big East",NA,"#003263","#231f20",3752,"Heinz Field","Pittsburgh","PA","15260","US","America/New_York",40.4467648,-80.0157603,"220.5887146",68400,2001,FALSE,FALSE
2000,2509,"Purdue","Boilermakers","PUR",NA,"PUR","Purdue","Big Ten",NA,"#B89D29","#a4a9ad",3907,"Ross-Ade Stadium","West Lafayette","IN","47907","US","America/Indiana/Indianapolis",40.4352253,-86.9186843,"197.5337677",57282,1924,FALSE,FALSE
2000,242,"Rice","Owls","RICE",NA,"RICE","Rice","Western Athletic",NA,"#003D7D","#d1d5d8",3895,"Rice Stadium","Houston","TX","77251","US","America/Chicago",29.7163297,-95.4093261,"7.148301601",47000,1950,FALSE,FALSE
2000,164,"Rutgers","Scarlet Knights","RUTG",NA,"RUTG","Rutgers","Big East",NA,"#d21034","#ffffff",3754,"High Point Solutions Stadium","Piscataway","NJ","8854 ","US","America/New_York",40.5136754,-74.4655737,"8.543146133",52454,1994,FALSE,FALSE
2000,21,"San Diego State","Aztecs","SDSU",NA,"SDSU","San Diego State","Mountain West",NA,"#BF2C37","#a8996e",3932,"Qualcomm Stadium","San Diego","CA","92108","US","America/Los_Angeles",32.7831122,-117.1195716,"16.28476334",70561,1967,FALSE,FALSE
2000,23,"San José State","Spartans","SJSU","San Jose St.","SJSU","San Jose State","Western Athletic",NA,"#005893","#fdba31",3935,"Spartan Stadium","San Jose","CA","95112","US","America/Los_Angeles",37.3196675,-121.8682962,"28.30708694",30456,1933,FALSE,FALSE
2000,2567,"SMU","Mustangs","SMU","Southern Methodist","SMU","SMU","Western Athletic",NA,"#E32F38","#ecdcb9",3735,"Gerald J. Ford Stadium","University Park","TX","75275","US","America/Chicago",32.8377223,-96.7827859,"169.4058075",32000,2000,FALSE,FALSE
2000,2579,"South Carolina","Gamecocks","SC",NA,"SC","South Carolina","SEC","East","#670010","#000000",3994,"Williams-Brice Stadium","Columbia","SC","29208","US","America/New_York",33.9730239,-81.0191726,"60.54548645",80250,1934,TRUE,FALSE
2000,2572,"Southern Mississippi","Golden Eagles","USM",NA,"USM","Southern Miss","Conference USA",NA,"#FFAA3C","#ffc423",3815,"M. M. Roberts Stadium","Hattiesburg","MS","39402","US","America/Chicago",31.3289321,-89.3318118,"64.52726746",36000,1932,FALSE,FALSE
2000,58,"South Florida","Bulls","USF",NA,"USF","USF","FBS Independents",NA,"#004A36","#231f20",3886,"Raymond James Stadium","Tampa","FL","33620","US","America/New_York",27.9758691,-82.5033344,"11.07972908",65828,1998,FALSE,FALSE
2000,24,"Stanford","Cardinal","STAN",NA,"STAN","Stanford","Pac-10",NA,"#A80532","#ffffff",3940,"Stanford Stadium","Stanford","CA","94305","US","America/Los_Angeles",37.4345556,-122.1611271,"18.38425636",50424,2006,FALSE,FALSE
2000,183,"Syracuse","Orange","SYR",NA,"SYR","Syracuse","Big East",NA,"#F37321","#0d1d37",1964,"Carrier Dome","Syracuse","NY","13244","US","America/New_York",43.0362269,-76.1363161,"162.6989746",49057,1980,FALSE,TRUE
2000,2628,"TCU","Horned Frogs","TCU","Texas Christian","TCU","TCU","Western Athletic",NA,"#3C377D","#f1f2f3",3616,"Amon G. Carter Stadium","Fort Worth","TX","76129","US","America/Chicago",32.7096604,-97.3680835,"185.4387054",46000,1929,FALSE,FALSE
2000,218,"Temple","Owls","TEM",NA,"TEM","Temple","Big East",NA,"#A80532","#a7a9ac",3806,"Lincoln Financial Field","Philadelphia","PA","19122","US","America/New_York",39.9007995,-75.1675414,"3.198706865",69879,2003,FALSE,FALSE
2000,2633,"Tennessee","Volunteers","TENN",NA,"TENN","Tennessee","SEC","East","#EE9627","#ffffff",3853,"Neyland Stadium","Knoxville","TN","37996","US","America/New_York",35.9550131,-83.9250128,"271.9517212",102455,1921,TRUE,FALSE
2000,251,"Texas","Longhorns","TEX",NA,"TEX","Texas","Big 12","South","#EE7524","#f0f0f0",3910,"Darrell K Royal-Texas Memorial Stadium","Austin","TX","78712","US","America/Chicago",30.2836813,-97.7325345,"160.3089447",100119,1924,FALSE,FALSE
2000,245,"Texas A&M","Aggies","TA&M",NA,"TA&M","Texas A&M","Big 12","South","#5C0025","#ffffff",3795,"Kyle Field","College Station","TX","77843","US","America/Chicago",30.6098891,-96.3403828,"108.824585",102733,1927,TRUE,FALSE
2000,2641,"Texas Tech","Red Raiders","TTU",NA,"TTU","Texas Tech","Big 12","South","#C80025","#231f20",3784,"Jones AT&T Stadium","Lubbock","TX","79409","US","America/Chicago",33.5910518,-101.8728824,"980.7632446",60454,1947,FALSE,FALSE
2000,2649,"Toledo","Rockets","TOL",NA,"TOL","Toledo","Mid-American","West","#ffffff","#ffd51d",3739,"Glass Bowl","Toledo","OH","43606","US","America/New_York",41.6574777,-83.6135652,"181.4839783",26038,1937,FALSE,FALSE
2000,2655,"Tulane","Green Wave","TULN",NA,"TULN","Tulane","Conference USA",NA,"#005837","#3baf29",4729,"Benson Field at Yulman Stadium","New Orleans","LA","70118","US","America/Chicago",29.944616,-90.116692,"0.0000000000000000000000000000000000000118",30000,2014,FALSE,FALSE
2000,202,"Tulsa","Golden Hurricane","TLSA",NA,"TLSA","Tulsa","Western Athletic",NA,"#004371","#ee3b33",3674,"Skelly Field at H. A. Chapman Stadium","Tulsa","OK","74194","US","America/Chicago",36.1489175,-95.9437853,"235.5928345",30000,1930,FALSE,FALSE
2000,5,"UAB","Blazers","UAB","Alabama-Birmingham","UAB","UAB","Conference USA",NA,"#003b28","#ffc845",3803,"Legion Field","Birmingham","AL","35294","US","America/Chicago",33.511389,-86.842778,"174.6382141",72000,1927,FALSE,FALSE
2000,2116,"UCF","Knights","UCF","Central Florida","UCF","UCF","FBS Independents",NA,"#000000","#231f20",3652,"Bright House Networks Stadium","Orlando","FL","32816","US","America/New_York",28.6079765,-81.1927233,"20.94113731",44206,2007,FALSE,FALSE
2000,26,"UCLA","Bruins","UCLA",NA,"UCLA","UCLA","Pac-10",NA,"#005C8E","#ffc72c",1056,"Rose Bowl","Pasadena","CA","90095","US","America/Los_Angeles",34.1613284,-118.1676462,"245.1772461",88565,1922,FALSE,FALSE
2000,2439,"UNLV","Rebels","UNLV","Nevada-Las Vegas","UNLV","UNLV","Mountain West",NA,"#000000","#c2c4c6",3914,"Sam Boyd Stadium","Whitney","NV","89154","US","America/Los_Angeles",36.085935,-115.01731,"490.0622253",36800,1971,FALSE,FALSE
2000,30,"USC","Trojans","USC",NA,"USC","USC","Pac-10",NA,"#ffc72c","#ae2531",477,"Los Angeles Memorial Coliseum","Los Angeles","CA","90089","US","America/Los_Angeles",34.014167,-118.287778,"42.50374222",77500,1923,TRUE,FALSE
2000,254,"Utah","Utes","UTAH",NA,"UTAH","Utah","Mountain West",NA,"#890012","#7e8083",587,"Rice-Eccles Stadium","Salt Lake City","UT","84112","US","America/Denver",40.7599724,-111.8488255,"1411.543579",45807,1998,FALSE,FALSE
2000,328,"Utah State","Aggies","USU",NA,"USU","Utah State","Big West",NA,"#003263","#949ca1",3905,"Romney Stadium","Logan","UT","84322","US","America/Denver",41.7517394,-111.8116007,"1427.914429",25513,1968,FALSE,FALSE
2000,2638,"UTEP","Miners","UTEP","Texas-El Paso","UTEP","UTEP","Western Athletic",NA,"#ff8200","#041e42",3946,"Sun Bowl Stadium","El Paso","TX","79968","US","America/Denver",31.7733353,-106.507957,"1183.697876",51500,1963,FALSE,FALSE
2000,238,"Vanderbilt","Commodores","VAN",NA,"VAN","Vanderbilt","SEC","East","#000000","#231f20",3973,"Vanderbilt Stadium","Nashville","TN","37212","US","America/Chicago",36.1440455,-86.8088942,"159.9194641",40351,1922,FALSE,FALSE
2000,258,"Virginia","Cavaliers","UVA",NA,"UVA","UVA","ACC",NA,"#f84c1e","#ffffff",3923,"Scott Stadium","Charlottesville","VA","22904","US","America/New_York",38.0311801,-78.5137897,"170.4677429",61500,1931,FALSE,FALSE
2000,259,"Virginia Tech","Hokies","VT",NA,"VT","VT","Big East",NA,"#74232D","#c2c1ba",3799,"Lane Stadium","Blacksburg","VA","24061","US","America/New_York",37.2199873,-80.4180643,"632.2631226",65632,1965,FALSE,FALSE
2000,154,"Wake Forest","Demon Deacons","WAKE",NA,"WAKE","Wake Forest","ACC",NA,"#9E7E38","#000000",3630,"BB&T Field","Winston-Salem","NC","27105","US","America/New_York",36.1305507,-80.2545851,"283.548584",31500,1968,FALSE,FALSE
2000,264,"Washington","Huskies","WASH",NA,"WASH","Washington","Pac-10",NA,"#2B2F64","#e8e3d3",3765,"Husky Stadium","Seattle","WA","98195","US","America/Los_Angeles",47.6503235,-122.3015746,"11.65622807",70138,1920,FALSE,FALSE
2000,265,"Washington State","Cougars","WSU",NA,"WSU","Washington St","Pac-10",NA,"#94022a","#6a747c",3820,"Martin Stadium","Pullman","WA","99164","US","America/Los_Angeles",46.731831,-117.1604991,"773.9526367",32952,1972,FALSE,FALSE
2000,2711,"Western Michigan","Broncos","WMU",NA,"WMU","W Michigan","Mid-American","West","#532e1f","#8b7f79",3980,"Waldo Stadium","Kalamazoo","MI","49008","US","America/Detroit",42.2860064,-85.6007573,"243.8211212",30200,1939,FALSE,FALSE
2000,277,"West Virginia","Mountaineers","WVU",NA,"WVU","West Virginia","Big East",NA,"#FFC600","#eaaa00",3842,"Mountaineer Field at Milan Puskar Stadium","Morgantown","WV","26507","US","America/New_York",39.6502744,-79.9551873,"327.409668",60000,1980,FALSE,FALSE
2000,275,"Wisconsin","Badgers","WIS",NA,"WIS","Wisconsin","Big Ten",NA,"#A00001","#f7f7f7",347,"Camp Randall Stadium","Madison","WI","53711","US","America/Chicago",43.06994,-89.4126943,"263.604126",80321,1917,FALSE,FALSE
2000,2751,"Wyoming","Cowboys","WYO",NA,"WYO","Wyoming","Mountain West",NA,"#533B22","#ffffff",3984,"War Memorial Stadium","Laramie","WY","82071","US","America/Denver",41.31161,-105.5681384,"2200.153564",29181,1950,FALSE,FALSE
2001,2005,"Air Force","Falcons","AFA",NA,"AFA","Air Force","Mountain West",NA,"#004a7b","#ffffff",3713,"Falcon Stadium","Colorado Springs","CO","80840","US","America/Denver",38.9969701,-104.8436165,"2024.875732",46692,1962,FALSE,FALSE
2001,2006,"Akron","Zips","AKR",NA,"AKR","Akron","Mid-American","East","#00285e","#84754e",3768,"Summa Field at InfoCision Stadium","Akron","OH","44399","US","America/New_York",41.0725534,-81.5083408,"321.2875061",30000,2009,FALSE,FALSE
2001,333,"Alabama","Crimson Tide","ALA",NA,"ALA","Alabama","SEC","West","#690014","#f1f2f3",3657,"Bryant Denny Stadium","Tuscaloosa","AL","35487","US","America/Chicago",33.2082752,-87.5503836,"70.05136108",101821,1929,TRUE,FALSE
2001,12,"Arizona","Wildcats","ARIZ",NA,"ARIZ","Arizona","Pac-10",NA,"#002449","#00205b",3619,"Arizona Stadium","Tucson","AZ","85721","US","America/Phoenix",32.2288054,-110.9488677,"742.1530151",50782,1928,FALSE,FALSE
2001,9,"Arizona State","Sun Devils","ASU",NA,"ASU","Arizona State","Pac-10",NA,"#942139","#f1f2f3",3947,"Sun Devil Stadium","Tempe","AZ","85287","US","America/Phoenix",33.4264471,-111.9325005,"360.1569519",65870,1958,FALSE,FALSE
2001,8,"Arkansas","Razorbacks","ARK",NA,"ARK","Arkansas","SEC","West","#9c1831","#000000",3887,"Donald W. Reynolds Razorback Stadium Frank Broyles Field","Fayetteville","AR","72702","US","America/Chicago",36.0680662,-94.1789534,"403.7972412",80000,1938,FALSE,FALSE
2001,2032,"Arkansas State","Red Wolves","ARST",NA,"ARST","Arkansas State","Sun Belt",NA,"#e81018","#000000",3625,"Centennial Bank Stadium","Jonesboro","AR","72404","US","America/Chicago",35.8488977,-90.6677436,"89.52690887",30382,1974,FALSE,FALSE
2001,349,"Army","Black Knights","ARMY",NA,"ARMY","Army","Conference USA",NA,"#ce9c00","#231f20",3841,"Blaik Field at Michie Stadium","West Point","NY","10996","US","America/New_York",41.3874924,-73.9640891,"99.21277618",38000,1924,FALSE,FALSE
2001,2,"Auburn","Tigers","AUB",NA,"AUB","Auburn","SEC","West","#03244d","#f1f2f3",3785,"Jordan-Hare Stadium","Auburn","AL","36849","US","America/Chicago",32.6025532,-85.4897479,"201.1737976",87451,1939,TRUE,FALSE
2001,2050,"Ball State","Cardinals","BALL",NA,"BALL","Ball State","Mid-American","West","#DA0000","#ffffff",3919,"Scheumann Stadium","Muncie","IN","47306","US","America/Indiana/Indianapolis",40.2159422,-85.4161148,"285.481781",22500,1967,FALSE,FALSE
2001,239,"Baylor","Bears","BAY",NA,"BAY","Baylor","Big 12","South","#004834","#ffb81c",4727,"McLane Stadium","Waco","TX","76704","US","America/Chicago",31.5582015,-97.1156702,"117.0538101",45140,2014,FALSE,FALSE
2001,68,"Boise State","Broncos","BSU",NA,"BSU","Boise State","Western Athletic",NA,"#09347A","#d8d9da",3653,"Albertsons Stadium","Boise","ID","83725","US","America/Boise",43.6028839,-116.1958882,"823.2221069",36387,1970,FALSE,FALSE
2001,103,"Boston College","Eagles","BC",NA,"BC","Boston College","Big East",NA,"#88001a","#a39161",3615,"Alumni Stadium","Chestnut Hill","MA","2467 ","US","America/New_York",42.335104,-71.1664413,"39.82634354",44500,1957,FALSE,FALSE
2001,189,"Bowling Green","Falcons","BGSU","Bowling Green State","BGSU","Bowling Green","Mid-American","East","#2b1000","#492000",3700,"Doyt Perry Stadium","Bowling Green","OH","43403","US","America/New_York",41.3780114,-83.6225,"205.9057465",24000,1966,FALSE,FALSE
2001,2084,"Buffalo","Bulls","BUFF",NA,"BUFF","Buffalo","Mid-American","East","#041A9B","#ebebeb",3965,"UB Stadium","Amherst","NY","14260","US","America/New_York",42.9991334,-78.7775113,"181.5759735",30270,1993,FALSE,FALSE
2001,252,"BYU","Cougars","BYU","Brigham Young","BYU","BYU","Mountain West",NA,"#001E4C","#ffffff",3801,"LaVell Edwards Stadium","Provo","UT","84602","US","America/Denver",40.2575347,-111.6545247,"1412.097046",63470,1964,FALSE,FALSE
2001,25,"California","Golden Bears","CAL",NA,"CAL","Cal","Pac-10",NA,"#031522","#ffc423",3831,"California Memorial Stadium","Berkeley","CA","94720","US","America/Los_Angeles",37.8710434,-122.2507729,"125.3108063",62467,1923,FALSE,FALSE
2001,2117,"Central Michigan","Chippewas","CMU",NA,"CMU","Cent Michigan","Mid-American","West","#6a0032","#ffffff",3786,"Kelly/Shorts Stadium","Mount Pleasant","MI","48859","US","America/Detroit",43.5777313,-84.7709904,"240.9007721",30255,1972,FALSE,FALSE
2001,2132,"Cincinnati","Bearcats","CIN",NA,"CIN","Cincinnati","Conference USA",NA,"#000000","#717073",3854,"Nippert Stadium","Cincinnati","OH","45221","US","America/New_York",39.1312495,-84.5161913,"230.0660553",40000,1915,FALSE,FALSE
2001,228,"Clemson","Tigers","CLEM",NA,"CLEM","Clemson","ACC",NA,"#F66733","#522d80",3836,"Memorial Stadium","Clemson","SC","29634","US","America/New_York",34.6787737,-82.8432428,"205.6452179",81500,1942,FALSE,FALSE
2001,38,"Colorado","Buffaloes","COLO",NA,"COLO","Colorado","Big 12","North","#d1c57e","#ffd200",3726,"Folsom Field","Boulder","CO","80309","US","America/Denver",40.0094746,-105.266905,"1634.041138",50183,1924,FALSE,FALSE
2001,36,"Colorado State","Rams","CSU",NA,"CSU","Colorado State","Mountain West",NA,"#004537","#ffc425",3761,"Sonny Lubick Field at Hughes Stadium","Fort Collins","CO","80526","US","America/Denver",40.5621183,-105.1416248,"1574.920898",34400,1968,FALSE,FALSE
2001,41,"Connecticut","Huskies","CONN",NA,"CONN","UConn","FBS Independents",NA,"#001d40","#f1f2f3",3892,"Rentschler Field","East Hartford","CT","6118 ","US","America/New_York",41.7595675,-72.6187728,"6.515614986",40000,2003,FALSE,FALSE
2001,150,"Duke","Blue Devils","DUKE",NA,"DUKE","Duke","ACC",NA,"#001A57","#f1f2f3",3982,"Wallace Wade Stadium","Durham","NC","27708","US","America/New_York",35.9953688,-78.9417564,"103.0028152",40004,1929,FALSE,FALSE
2001,151,"East Carolina","Pirates","ECU",NA,"ECU","ECU","Conference USA",NA,"#4b1869","#f0907b",3699,"Dowdy-Ficklen Stadium","Greenville","NC","27858","US","America/New_York",35.5968486,-77.364564,"19.0564537",50000,1963,FALSE,FALSE
2001,2199,"Eastern Michigan","Eagles","EMU",NA,"EMU","E Michigan","Mid-American","West","#00331b","#f0f0f0",3912,"Rynearson Stadium","Ypsilanti","MI","48197","US","America/Detroit",42.256126,-83.647285,"241.248764",30200,1969,FALSE,FALSE
2001,57,"Florida","Gators","FLA",NA,"FLA","Florida","SEC","East","#0021A5","#0021a5",3634,"Ben Hill Griffin Stadium","Gainesville","FL","32653","US","America/New_York",29.6499357,-82.3485788,"44.97250748",88548,1930,TRUE,FALSE
2001,52,"Florida State","Seminoles","FSU",NA,"FSU","FSU","ACC",NA,"#782F40","#ceb888",3697,"Bobby Bowden Field at Doak Campbell Stadium","Tallahassee","FL","32306","US","America/New_York",30.4381692,-84.3044032,"19.55942535",79560,1950,FALSE,FALSE
2001,278,"Fresno State","Bulldogs","FRES",NA,"FRES","Fresno State","Western Athletic",NA,"#c41230","#231f20",3660,"Bulldog Stadium","Fresno","CA","93740","US","America/Los_Angeles",36.8143527,-119.7580092,"102.564064",41031,1980,FALSE,FALSE
2001,61,"Georgia","Bulldogs","UGA",NA,"UGA","Georgia","SEC","East","#CC0000","#000000",3917,"Sanford Stadium","Athens","GA","30602","US","America/New_York",33.9498197,-83.3733813,"186.1120758",92746,1929,TRUE,FALSE
2001,59,"Georgia Tech","Yellow Jackets","GT",NA,"GT","Georgia Tech","ACC",NA,"#00223e","#002c56",721,"Bobby Dodd Stadium at Historic Grant Field","Atlanta","GA","30332","US","America/New_York",33.7724449,-84.3928054,"279.300415",55000,1913,TRUE,FALSE
2001,62,"Hawai'i","Rainbow Warriors","HAW",NA,"HAW","Hawai'i","Western Athletic",NA,"#003420","#ffffff",3610,"Aloha Stadium","Honolulu","HI","96818","US","Pacific/Honolulu",21.3728014,-157.9299645,"10.26500511",50000,1975,FALSE,FALSE
2001,248,"Houston","Cougars","HOU",NA,"HOU","Houston","Conference USA",NA,"#C90822","#231f20",453,"Robertson Stadium","Houston","TX","77004","US","America/Chicago",29.722053,-95.349175,"9.6",32000,1942,FALSE,FALSE
2001,70,"Idaho","Vandals","IDHO",NA,"IDHO","Idaho","Sun Belt",NA,"#000000","#8c6e4a",3791,"Kibbie Dome","Moscow","ID","83843","US","America/Los_Angeles",46.7262921,-117.0173713,"794.4794922",16000,1975,FALSE,TRUE
2001,356,"Illinois","Fighting Illini","ILL",NA,"ILL","Illinois","Big Ten",NA,"#f77329","#fa6300",3597,"Alumni Memorial Field","Lexington","VA","24450","US","America/New_York",37.788983,-79.43505,"294.958252",10000,1962,TRUE,FALSE
2001,84,"Indiana","Hoosiers","IND",NA,"IND","Indiana","Big Ten",NA,"#7D110C","#eeedeb",3830,"Memorial Stadium","Bloomington","IN","47408","US","America/Indiana/Indianapolis",39.1808959,-86.5256217,"231.6500854",52656,1960,FALSE,FALSE
2001,2294,"Iowa","Hawkeyes","IOWA",NA,"IOWA","Iowa","Big Ten",NA,"#000000","#ffe100",3793,"Kinnick Stadium","Iowa City","IA","52242","US","America/Chicago",41.6586045,-91.5510829,"220.6357727",69250,1929,FALSE,FALSE
2001,66,"Iowa State","Cyclones","ISU",NA,"ISU","Iowa State","Big 12","North","#660015","#830b2c",3772,"Jack Trice Stadium","Ames","IA","50011","US","America/Chicago",42.0139977,-93.6357716,"274.9135437",61500,1975,FALSE,FALSE
2001,2305,"Kansas","Jayhawks","KU",NA,"KU","Kansas","Big 12","North","#0022B4","#e8000d",3833,"Memorial Stadium","Lawrence","KS","66045","US","America/Chicago",38.9629418,-95.2463686,"274.855957",47000,1921,FALSE,FALSE
2001,2306,"Kansas State","Wildcats","KSU",NA,"KSU","Kansas State","Big 12","North","#633194","#e7d2ad",3636,"Bill Snyder Family Football Stadium","Manhattan","KS","66502","US","America/Chicago",39.2020096,-96.5938395,"328.0574646",50000,1968,FALSE,FALSE
2001,2309,"Kent State","Golden Flashes","KENT",NA,"KENT","Kent State","Mid-American","East","#002445","#f0b510",3696,"Dix Stadium","Kent","OH","44242","US","America/New_York",41.1390935,-81.31346,"321.3641663",25319,1969,FALSE,FALSE
2001,96,"Kentucky","Wildcats","UK",NA,"UK","Kentucky","SEC","East","#005DAA","#ffffff",3683,"Commonwealth Stadium","Lexington","KY","40506","US","America/New_York",38.0220905,-84.5053408,"307.4248962",61000,1973,TRUE,FALSE
2001,309,"Louisiana","Ragin' Cajuns","ULL","UL Lafayette","ULL","Louisiana","Sun Belt",NA,"#ce2842",NA,3666,"Cajun Field","Lafayette","LA","70506","US","America/Chicago",30.2158434,-92.0417371,"3.556508303",41426,1971,FALSE,FALSE
2001,2433,"Louisiana Monroe","Warhawks","ULM","La.-Monroe","ULM","UL Monroe","Sun Belt",NA,"#231F20","#b18445",3817,"Malone Stadium","Monroe","LA","71209","US","America/Chicago",32.5308089,-92.0660602,"22.998209",30427,1978,FALSE,FALSE
2001,2348,"Louisiana Tech","Bulldogs","LT",NA,"LT","LA Tech","Western Athletic",NA,"#002d65","#d3313a",3776,"Joe Aillet Stadium","Ruston","LA","71272","US","America/Chicago",32.5321487,-92.6560019,"72.87982941",28019,1968,FALSE,FALSE
2001,97,"Louisville","Cardinals","LOU",NA,"LOU","Louisville","Conference USA",NA,"#ad000a","#cccccc",3873,"Papa John's Cardinal Stadium","Louisville","KY","40292","US","America/Kentucky/Louisville",38.2057621,-85.7588141,"138.5615997",60000,1998,FALSE,FALSE
2001,99,"LSU","Tigers","LSU","Louisiana State","LSU","LSU","SEC","West","#fdd023","#2b0d57",3958,"Tiger Stadium","Baton Rouge","LA","70803","US","America/Chicago",30.412035,-91.1838163,"7.640734673",102321,1924,TRUE,FALSE
2001,276,"Marshall","Thundering Herd","MRSH",NA,"MRSH","Marshall","Mid-American","East","#186329","#be854c",3775,"Joan C. Edwards Stadium","Huntington","WV","25755","US","America/New_York",38.4247042,-82.4214412,"163.7328186",38016,1991,FALSE,FALSE
2001,120,"Maryland","Terrapins","MD",NA,"MD","Maryland","ACC",NA,"#D5002B","#ffcd00",3665,"Maryland Stadium","College Park","MD","20742","US","America/New_York",38.9903332,-76.9473792,"32.68748093",51802,1950,FALSE,FALSE
2001,235,"Memphis","Tigers","MEM",NA,"MEM","Memphis","Conference USA",NA,"#003087","#898d8d",3805,"Liberty Bowl Memorial Stadium","Memphis","TN","38152","US","America/Chicago",35.1209429,-89.977147,"90.62445831",58325,1965,FALSE,FALSE
2001,2390,"Miami","Hurricanes","MIAMI","Miami (FL)","MIAMI","Miami","Big East",NA,"#004325","#f0f0f0",3948,"Hard Rock Stadium","Miami Gardens","FL","33299","US","America/New_York",25.9579665,-80.2388604,"2.624486446",64767,1987,TRUE,FALSE
2001,193,"Miami (OH)","RedHawks","M-OH",NA,"M-OH","Miami (OH)","Mid-American","East","#a4000c","#f0f0f0",3996,"Yager Stadium","Oxford","OH","45056","US","America/New_York",39.5197009,-84.7330255,"242.2643585",24286,1983,FALSE,FALSE
2001,130,"Michigan","Wolverines","MICH",NA,"MICH","Michigan","Big Ten",NA,"#00274c","#00274c",3558,"Michigan Stadium","Ann Arbor","MI","48109","US","America/Detroit",42.2658365,-83.7486956,"255.5500031",107601,1927,FALSE,FALSE
2001,127,"Michigan State","Spartans","MSU",NA,"MSU","Michigan State","Big Ten",NA,"#18453B","#ffffff",3936,"Spartan Stadium","East Lansing","MI","48824","US","America/Detroit",42.7281474,-84.4848526,"254.8794861",75005,1923,FALSE,FALSE
2001,2393,"Middle Tennessee","Blue Raiders","MTSU","Middle Tennessee State","MTSU","Mid Tennessee","Sun Belt",NA,"#0079C2","#c3c5c8",3725,"Johnny Red"""" Floyd Stadium""""","Murfreesboro","TN","37132","US","America/Chicago",35.8511463,-86.3681649,"191.7279816",30788,1933,FALSE,FALSE
2001,135,"Minnesota","Golden Gophers","MINN",NA,"MINN","Minnesota","Big Ten",NA,"#981a31","#981a31",3953,"TCF Bank Stadium","Minneapolis","MN","55488","US","America/Chicago",44.976525,-93.2245462,"254.3902283",50850,2009,FALSE,FALSE
2001,344,"Mississippi State","Bulldogs","MSST",NA,"MSST","Miss St","SEC","West","#762123","#c8c8c8",3693,"Davis Wade Stadium","Starkville","MS","39762","US","America/Chicago",33.4563403,-88.7933652,"110.2742081",61337,1914,TRUE,FALSE
2001,142,"Missouri","Tigers","MIZ",NA,"MIZ","Missouri","Big 12","North","#000000","#000000",3838,"Faurot Field","Columbia","MO","65211","US","America/Chicago",38.9358491,-92.3332009,"212.6865692",71168,1927,FALSE,FALSE
2001,2426,"Navy","Midshipmen","NAVY",NA,"NAVY","Navy","FBS Independents",NA,"#131630","#b6a77c",3852,"Navy-Marine Corps Memorial Stadium","Annapolis","MD","21402","US","America/New_York",38.9846985,-76.5076335,"10.74990082",34000,1959,TRUE,FALSE
2001,152,"NC State","Wolfpack","NCST","North Carolina St.","NCST","NC State","ACC",NA,"#EF1216","#231f20",3670,"Carter-Finley Stadium","Raleigh","NC","27695","US","America/New_York",35.8008001,-78.7195655,"117.0089951",58000,1966,FALSE,FALSE
2001,158,"Nebraska","Cornhuskers","NEB",NA,"NEB","Nebraska","Big 12","North","#F20017","#f5f1e7",3834,"Memorial Stadium","Lincoln","NE","68588","US","America/Chicago",40.820682,-96.705594,"354.9318848",85458,1923,FALSE,FALSE
2001,2440,"Nevada","Wolf Pack","NEV",NA,"NEV","Nevada","Western Athletic",NA,"#153E5F","#8e9295",3816,"Mackay Stadium","Reno","NV","89557","US","America/Los_Angeles",39.5469459,-119.8175435,"1406.57605",27000,1966,FALSE,FALSE
2001,167,"New Mexico","Lobos","UNM",NA,"UNM","New Mexico","Mountain West",NA,"#000000","#231f20",3971,"University Stadium","Albuquerque","NM","87131","US","America/Denver",35.0669479,-106.6283225,"1554.471924",39224,1960,FALSE,FALSE
2001,166,"New Mexico State","Aggies","NMSU",NA,"NMSU","New Mexico St","Sun Belt",NA,"#891216","#000000",3601,"Aggie Memorial Stadium","Las Cruces","NM","88003","US","America/Denver",32.2796202,-106.7411148,"1208.201294",28853,1978,FALSE,FALSE
2001,153,"North Carolina","Tar Heels","UNC",NA,"UNC","UNC","ACC",NA,"#99bfe5","#13294b",3787,"Kenan Memorial Stadium","Chapel Hill","NC","27515","US","America/New_York",35.9069294,-79.0478889,"127.7569809",50500,1927,FALSE,FALSE
2001,2459,"Northern Illinois","Huskies","NIU",NA,"NIU","N Illinois","Mid-American","West","#F1122C","#cc0000",3764,"Brigham Field at Huskie Stadium","DeKalb","IL","60115","US","America/Chicago",41.9339586,-88.7778357,"267.4530029",23595,1965,FALSE,FALSE
2001,249,"North Texas","Mean Green","UNT",NA,"UNT","North Texas","Sun Belt",NA,"#00853D","#000000",3825,"Apogee Stadium","Denton","TX","76210","US","America/Chicago",33.203899,-97.159245,"198.6871948",30850,2011,FALSE,FALSE
2001,77,"Northwestern","Wildcats","NW",NA,"NW","Northwestern","Big Ten",NA,"#372286","#d6cac1",3911,"Ryan Field","Evanston","IL","60208","US","America/Chicago",42.0653994,-87.6924751,"181.2376099",47130,1926,FALSE,FALSE
2001,87,"Notre Dame","Fighting Irish","ND",NA,"ND","Notre Dame","FBS Independents",NA,"#00122b","#ae9142",3855,"Notre Dame Stadium","Notre Dame","IN","46556","US","America/Indiana/Indianapolis",41.698378,-86.2339425,"222.645401",80795,1930,FALSE,FALSE
2001,195,"Ohio","Bobcats","OHIO",NA,"OHIO","Ohio","Mid-American","East","#295A29","#e4bb85",3876,"Peden Stadium","Athens","OH","45701","US","America/New_York",39.3212794,-82.1034315,"194.230896",24000,1929,FALSE,FALSE
2001,194,"Ohio State","Buckeyes","OSU",NA,"OSU","OSU","Big Ten",NA,"#DE3121","#666666",3861,"Ohio Stadium","Columbus","OH","43210","US","America/New_York",40.0016447,-83.0197266,"216.6770325",102780,1922,FALSE,FALSE
2001,201,"Oklahoma","Sooners","OKLA",NA,"OKLA","Oklahoma","Big 12","South","#7b0000","#cccccc",3835,"Gaylord Family Oklahoma Memorial Stadium","Norman","OK","73019","US","America/Chicago",35.2058537,-97.4423145,"355.0962524",86112,1925,FALSE,FALSE
2001,197,"Oklahoma State","Cowboys","OKST",NA,"OKST","Oklahoma State","Big 12","South","#FF6500","#ff9900",3646,"Boone Pickens Stadium","Stillwater","OK","74078","US","America/Chicago",36.125673,-97.066513,"276.4808655",55509,1919,FALSE,FALSE
2001,145,"Ole Miss","Rebels","MISS",NA,"MISS","Ole Miss","SEC","West","#001148","#00205b",3974,"Vaught-Hemingway Stadium","Oxford","MS","38677","US","America/Chicago",34.3619837,-89.5342076,"146.8517151",64038,1915,TRUE,FALSE
2001,2483,"Oregon","Ducks","ORE",NA,"ORE","Oregon","Pac-10",NA,"#044520","#fee123",3626,"Autzen Stadium","Eugene","OR","97401","US","America/Los_Angeles",44.0582712,-123.0684883,"127.4198303",54000,1967,FALSE,FALSE
2001,204,"Oregon State","Beavers","ORST",NA,"ORST","Oregon State","Pac-10",NA,"#c34500","#dea076",3893,"Reser Stadium","Corvallis","OR","97331","US","America/Los_Angeles",44.5594559,-123.2814341,"66.90744781",43363,1953,FALSE,FALSE
2001,213,"Penn State","Nittany Lions","PSU",NA,"PSU","Penn State","Big Ten",NA,"#00265D","#002e5c",3632,"Beaver Stadium","University Park","PA","16802","US","America/New_York",40.8121958,-77.8561023,"354.1551514",106572,1960,FALSE,FALSE
2001,221,"Pittsburgh","Panthers","PITT","Pitt","PITT","Pitt","Big East",NA,"#003263","#231f20",3752,"Heinz Field","Pittsburgh","PA","15260","US","America/New_York",40.4467648,-80.0157603,"220.5887146",68400,2001,FALSE,FALSE
2001,2509,"Purdue","Boilermakers","PUR",NA,"PUR","Purdue","Big Ten",NA,"#B89D29","#a4a9ad",3907,"Ross-Ade Stadium","West Lafayette","IN","47907","US","America/Indiana/Indianapolis",40.4352253,-86.9186843,"197.5337677",57282,1924,FALSE,FALSE
2001,242,"Rice","Owls","RICE",NA,"RICE","Rice","Western Athletic",NA,"#003D7D","#d1d5d8",3895,"Rice Stadium","Houston","TX","77251","US","America/Chicago",29.7163297,-95.4093261,"7.148301601",47000,1950,FALSE,FALSE
2001,164,"Rutgers","Scarlet Knights","RUTG",NA,"RUTG","Rutgers","Big East",NA,"#d21034","#ffffff",3754,"High Point Solutions Stadium","Piscataway","NJ","8854 ","US","America/New_York",40.5136754,-74.4655737,"8.543146133",52454,1994,FALSE,FALSE
2001,21,"San Diego State","Aztecs","SDSU",NA,"SDSU","San Diego State","Mountain West",NA,"#BF2C37","#a8996e",3932,"Qualcomm Stadium","San Diego","CA","92108","US","America/Los_Angeles",32.7831122,-117.1195716,"16.28476334",70561,1967,FALSE,FALSE
2001,23,"San José State","Spartans","SJSU","San Jose St.","SJSU","San Jose State","Western Athletic",NA,"#005893","#fdba31",3935,"Spartan Stadium","San Jose","CA","95112","US","America/Los_Angeles",37.3196675,-121.8682962,"28.30708694",30456,1933,FALSE,FALSE
2001,2567,"SMU","Mustangs","SMU","Southern Methodist","SMU","SMU","Western Athletic",NA,"#E32F38","#ecdcb9",3735,"Gerald J. Ford Stadium","University Park","TX","75275","US","America/Chicago",32.8377223,-96.7827859,"169.4058075",32000,2000,FALSE,FALSE
2001,2579,"South Carolina","Gamecocks","SC",NA,"SC","South Carolina","SEC","East","#670010","#000000",3994,"Williams-Brice Stadium","Columbia","SC","29208","US","America/New_York",33.9730239,-81.0191726,"60.54548645",80250,1934,TRUE,FALSE
2001,2572,"Southern Mississippi","Golden Eagles","USM",NA,"USM","Southern Miss","Conference USA",NA,"#FFAA3C","#ffc423",3815,"M. M. Roberts Stadium","Hattiesburg","MS","39402","US","America/Chicago",31.3289321,-89.3318118,"64.52726746",36000,1932,FALSE,FALSE
2001,58,"South Florida","Bulls","USF",NA,"USF","USF","FBS Independents",NA,"#004A36","#231f20",3886,"Raymond James Stadium","Tampa","FL","33620","US","America/New_York",27.9758691,-82.5033344,"11.07972908",65828,1998,FALSE,FALSE
2001,24,"Stanford","Cardinal","STAN",NA,"STAN","Stanford","Pac-10",NA,"#A80532","#ffffff",3940,"Stanford Stadium","Stanford","CA","94305","US","America/Los_Angeles",37.4345556,-122.1611271,"18.38425636",50424,2006,FALSE,FALSE
2001,183,"Syracuse","Orange","SYR",NA,"SYR","Syracuse","Big East",NA,"#F37321","#0d1d37",1964,"Carrier Dome","Syracuse","NY","13244","US","America/New_York",43.0362269,-76.1363161,"162.6989746",49057,1980,FALSE,TRUE
2001,2628,"TCU","Horned Frogs","TCU","Texas Christian","TCU","TCU","Conference USA",NA,"#3C377D","#f1f2f3",3616,"Amon G. Carter Stadium","Fort Worth","TX","76129","US","America/Chicago",32.7096604,-97.3680835,"185.4387054",46000,1929,FALSE,FALSE
2001,218,"Temple","Owls","TEM",NA,"TEM","Temple","Big East",NA,"#A80532","#a7a9ac",3806,"Lincoln Financial Field","Philadelphia","PA","19122","US","America/New_York",39.9007995,-75.1675414,"3.198706865",69879,2003,FALSE,FALSE
2001,2633,"Tennessee","Volunteers","TENN",NA,"TENN","Tennessee","SEC","East","#EE9627","#ffffff",3853,"Neyland Stadium","Knoxville","TN","37996","US","America/New_York",35.9550131,-83.9250128,"271.9517212",102455,1921,TRUE,FALSE
2001,251,"Texas","Longhorns","TEX",NA,"TEX","Texas","Big 12","South","#EE7524","#f0f0f0",3910,"Darrell K Royal-Texas Memorial Stadium","Austin","TX","78712","US","America/Chicago",30.2836813,-97.7325345,"160.3089447",100119,1924,FALSE,FALSE
2001,245,"Texas A&M","Aggies","TA&M",NA,"TA&M","Texas A&M","Big 12","South","#5C0025","#ffffff",3795,"Kyle Field","College Station","TX","77843","US","America/Chicago",30.6098891,-96.3403828,"108.824585",102733,1927,TRUE,FALSE
2001,2641,"Texas Tech","Red Raiders","TTU",NA,"TTU","Texas Tech","Big 12","South","#C80025","#231f20",3784,"Jones AT&T Stadium","Lubbock","TX","79409","US","America/Chicago",33.5910518,-101.8728824,"980.7632446",60454,1947,FALSE,FALSE
2001,2649,"Toledo","Rockets","TOL",NA,"TOL","Toledo","Mid-American","West","#ffffff","#ffd51d",3739,"Glass Bowl","Toledo","OH","43606","US","America/New_York",41.6574777,-83.6135652,"181.4839783",26038,1937,FALSE,FALSE
2001,2653,"Troy","Trojans","TROY",NA,"TROY","Troy","FBS Independents",NA,"#AE0210","#88898c",3975,"Veterans Memorial Stadium","Troy","AL","36082","US","America/Chicago",31.7995565,-85.9518328,"154.7746277",30000,1950,FALSE,FALSE
2001,2655,"Tulane","Green Wave","TULN",NA,"TULN","Tulane","Conference USA",NA,"#005837","#3baf29",4729,"Benson Field at Yulman Stadium","New Orleans","LA","70118","US","America/Chicago",29.944616,-90.116692,"0.0000000000000000000000000000000000000118",30000,2014,FALSE,FALSE
2001,202,"Tulsa","Golden Hurricane","TLSA",NA,"TLSA","Tulsa","Western Athletic",NA,"#004371","#ee3b33",3674,"Skelly Field at H. A. Chapman Stadium","Tulsa","OK","74194","US","America/Chicago",36.1489175,-95.9437853,"235.5928345",30000,1930,FALSE,FALSE
2001,5,"UAB","Blazers","UAB","Alabama-Birmingham","UAB","UAB","Conference USA",NA,"#003b28","#ffc845",3803,"Legion Field","Birmingham","AL","35294","US","America/Chicago",33.511389,-86.842778,"174.6382141",72000,1927,FALSE,FALSE
2001,2116,"UCF","Knights","UCF","Central Florida","UCF","UCF","FBS Independents",NA,"#000000","#231f20",3652,"Bright House Networks Stadium","Orlando","FL","32816","US","America/New_York",28.6079765,-81.1927233,"20.94113731",44206,2007,FALSE,FALSE
2001,26,"UCLA","Bruins","UCLA",NA,"UCLA","UCLA","Pac-10",NA,"#005C8E","#ffc72c",1056,"Rose Bowl","Pasadena","CA","90095","US","America/Los_Angeles",34.1613284,-118.1676462,"245.1772461",88565,1922,FALSE,FALSE
2001,2439,"UNLV","Rebels","UNLV","Nevada-Las Vegas","UNLV","UNLV","Mountain West",NA,"#000000","#c2c4c6",3914,"Sam Boyd Stadium","Whitney","NV","89154","US","America/Los_Angeles",36.085935,-115.01731,"490.0622253",36800,1971,FALSE,FALSE
2001,30,"USC","Trojans","USC",NA,"USC","USC","Pac-10",NA,"#ffc72c","#ae2531",477,"Los Angeles Memorial Coliseum","Los Angeles","CA","90089","US","America/Los_Angeles",34.014167,-118.287778,"42.50374222",77500,1923,TRUE,FALSE
2001,254,"Utah","Utes","UTAH",NA,"UTAH","Utah","Mountain West",NA,"#890012","#7e8083",587,"Rice-Eccles Stadium","Salt Lake City","UT","84112","US","America/Denver",40.7599724,-111.8488255,"1411.543579",45807,1998,FALSE,FALSE
2001,328,"Utah State","Aggies","USU",NA,"USU","Utah State","FBS Independents",NA,"#003263","#949ca1",3905,"Romney Stadium","Logan","UT","84322","US","America/Denver",41.7517394,-111.8116007,"1427.914429",25513,1968,FALSE,FALSE
2001,2638,"UTEP","Miners","UTEP","Texas-El Paso","UTEP","UTEP","Western Athletic",NA,"#ff8200","#041e42",3946,"Sun Bowl Stadium","El Paso","TX","79968","US","America/Denver",31.7733353,-106.507957,"1183.697876",51500,1963,FALSE,FALSE
2001,238,"Vanderbilt","Commodores","VAN",NA,"VAN","Vanderbilt","SEC","East","#000000","#231f20",3973,"Vanderbilt Stadium","Nashville","TN","37212","US","America/Chicago",36.1440455,-86.8088942,"159.9194641",40351,1922,FALSE,FALSE
2001,258,"Virginia","Cavaliers","UVA",NA,"UVA","UVA","ACC",NA,"#f84c1e","#ffffff",3923,"Scott Stadium","Charlottesville","VA","22904","US","America/New_York",38.0311801,-78.5137897,"170.4677429",61500,1931,FALSE,FALSE
2001,259,"Virginia Tech","Hokies","VT",NA,"VT","VT","Big East",NA,"#74232D","#c2c1ba",3799,"Lane Stadium","Blacksburg","VA","24061","US","America/New_York",37.2199873,-80.4180643,"632.2631226",65632,1965,FALSE,FALSE
2001,154,"Wake Forest","Demon Deacons","WAKE",NA,"WAKE","Wake Forest","ACC",NA,"#9E7E38","#000000",3630,"BB&T Field","Winston-Salem","NC","27105","US","America/New_York",36.1305507,-80.2545851,"283.548584",31500,1968,FALSE,FALSE
2001,264,"Washington","Huskies","WASH",NA,"WASH","Washington","Pac-10",NA,"#2B2F64","#e8e3d3",3765,"Husky Stadium","Seattle","WA","98195","US","America/Los_Angeles",47.6503235,-122.3015746,"11.65622807",70138,1920,FALSE,FALSE
2001,265,"Washington State","Cougars","WSU",NA,"WSU","Washington St","Pac-10",NA,"#94022a","#6a747c",3820,"Martin Stadium","Pullman","WA","99164","US","America/Los_Angeles",46.731831,-117.1604991,"773.9526367",32952,1972,FALSE,FALSE
2001,2711,"Western Michigan","Broncos","WMU",NA,"WMU","W Michigan","Mid-American","West","#532e1f","#8b7f79",3980,"Waldo Stadium","Kalamazoo","MI","49008","US","America/Detroit",42.2860064,-85.6007573,"243.8211212",30200,1939,FALSE,FALSE
2001,277,"West Virginia","Mountaineers","WVU",NA,"WVU","West Virginia","Big East",NA,"#FFC600","#eaaa00",3842,"Mountaineer Field at Milan Puskar Stadium","Morgantown","WV","26507","US","America/New_York",39.6502744,-79.9551873,"327.409668",60000,1980,FALSE,FALSE
2001,275,"Wisconsin","Badgers","WIS",NA,"WIS","Wisconsin","Big Ten",NA,"#A00001","#f7f7f7",347,"Camp Randall Stadium","Madison","WI","53711","US","America/Chicago",43.06994,-89.4126943,"263.604126",80321,1917,FALSE,FALSE
2001,2751,"Wyoming","Cowboys","WYO",NA,"WYO","Wyoming","Mountain West",NA,"#533B22","#ffffff",3984,"War Memorial Stadium","Laramie","WY","82071","US","America/Denver",41.31161,-105.5681384,"2200.153564",29181,1950,FALSE,FALSE
2002,2005,"Air Force","Falcons","AFA",NA,"AFA","Air Force","Mountain West",NA,"#004a7b","#ffffff",3713,"Falcon Stadium","Colorado Springs","CO","80840","US","America/Denver",38.9969701,-104.8436165,"2024.875732",46692,1962,FALSE,FALSE
2002,2006,"Akron","Zips","AKR",NA,"AKR","Akron","Mid-American","East","#00285e","#84754e",3768,"Summa Field at InfoCision Stadium","Akron","OH","44399","US","America/New_York",41.0725534,-81.5083408,"321.2875061",30000,2009,FALSE,FALSE
2002,333,"Alabama","Crimson Tide","ALA",NA,"ALA","Alabama","SEC","West","#690014","#f1f2f3",3657,"Bryant Denny Stadium","Tuscaloosa","AL","35487","US","America/Chicago",33.2082752,-87.5503836,"70.05136108",101821,1929,TRUE,FALSE
2002,12,"Arizona","Wildcats","ARIZ",NA,"ARIZ","Arizona","Pac-10",NA,"#002449","#00205b",3619,"Arizona Stadium","Tucson","AZ","85721","US","America/Phoenix",32.2288054,-110.9488677,"742.1530151",50782,1928,FALSE,FALSE
2002,9,"Arizona State","Sun Devils","ASU",NA,"ASU","Arizona State","Pac-10",NA,"#942139","#f1f2f3",3947,"Sun Devil Stadium","Tempe","AZ","85287","US","America/Phoenix",33.4264471,-111.9325005,"360.1569519",65870,1958,FALSE,FALSE
2002,8,"Arkansas","Razorbacks","ARK",NA,"ARK","Arkansas","SEC","West","#9c1831","#000000",3887,"Donald W. Reynolds Razorback Stadium Frank Broyles Field","Fayetteville","AR","72702","US","America/Chicago",36.0680662,-94.1789534,"403.7972412",80000,1938,FALSE,FALSE
2002,2032,"Arkansas State","Red Wolves","ARST",NA,"ARST","Arkansas State","Sun Belt",NA,"#e81018","#000000",3625,"Centennial Bank Stadium","Jonesboro","AR","72404","US","America/Chicago",35.8488977,-90.6677436,"89.52690887",30382,1974,FALSE,FALSE
2002,349,"Army","Black Knights","ARMY",NA,"ARMY","Army","Conference USA",NA,"#ce9c00","#231f20",3841,"Blaik Field at Michie Stadium","West Point","NY","10996","US","America/New_York",41.3874924,-73.9640891,"99.21277618",38000,1924,FALSE,FALSE
2002,2,"Auburn","Tigers","AUB",NA,"AUB","Auburn","SEC","West","#03244d","#f1f2f3",3785,"Jordan-Hare Stadium","Auburn","AL","36849","US","America/Chicago",32.6025532,-85.4897479,"201.1737976",87451,1939,TRUE,FALSE
2002,2050,"Ball State","Cardinals","BALL",NA,"BALL","Ball State","Mid-American","West","#DA0000","#ffffff",3919,"Scheumann Stadium","Muncie","IN","47306","US","America/Indiana/Indianapolis",40.2159422,-85.4161148,"285.481781",22500,1967,FALSE,FALSE
2002,239,"Baylor","Bears","BAY",NA,"BAY","Baylor","Big 12","South","#004834","#ffb81c",4727,"McLane Stadium","Waco","TX","76704","US","America/Chicago",31.5582015,-97.1156702,"117.0538101",45140,2014,FALSE,FALSE
2002,68,"Boise State","Broncos","BSU",NA,"BSU","Boise State","Western Athletic",NA,"#09347A","#d8d9da",3653,"Albertsons Stadium","Boise","ID","83725","US","America/Boise",43.6028839,-116.1958882,"823.2221069",36387,1970,FALSE,FALSE
2002,103,"Boston College","Eagles","BC",NA,"BC","Boston College","Big East",NA,"#88001a","#a39161",3615,"Alumni Stadium","Chestnut Hill","MA","2467 ","US","America/New_York",42.335104,-71.1664413,"39.82634354",44500,1957,FALSE,FALSE
2002,189,"Bowling Green","Falcons","BGSU","Bowling Green State","BGSU","Bowling Green","Mid-American","West","#2b1000","#492000",3700,"Doyt Perry Stadium","Bowling Green","OH","43403","US","America/New_York",41.3780114,-83.6225,"205.9057465",24000,1966,FALSE,FALSE
2002,2084,"Buffalo","Bulls","BUFF",NA,"BUFF","Buffalo","Mid-American","East","#041A9B","#ebebeb",3965,"UB Stadium","Amherst","NY","14260","US","America/New_York",42.9991334,-78.7775113,"181.5759735",30270,1993,FALSE,FALSE
2002,252,"BYU","Cougars","BYU","Brigham Young","BYU","BYU","Mountain West",NA,"#001E4C","#ffffff",3801,"LaVell Edwards Stadium","Provo","UT","84602","US","America/Denver",40.2575347,-111.6545247,"1412.097046",63470,1964,FALSE,FALSE
2002,25,"California","Golden Bears","CAL",NA,"CAL","Cal","Pac-10",NA,"#031522","#ffc423",3831,"California Memorial Stadium","Berkeley","CA","94720","US","America/Los_Angeles",37.8710434,-122.2507729,"125.3108063",62467,1923,FALSE,FALSE
2002,2117,"Central Michigan","Chippewas","CMU",NA,"CMU","Cent Michigan","Mid-American","West","#6a0032","#ffffff",3786,"Kelly/Shorts Stadium","Mount Pleasant","MI","48859","US","America/Detroit",43.5777313,-84.7709904,"240.9007721",30255,1972,FALSE,FALSE
2002,2132,"Cincinnati","Bearcats","CIN",NA,"CIN","Cincinnati","Conference USA",NA,"#000000","#717073",3854,"Nippert Stadium","Cincinnati","OH","45221","US","America/New_York",39.1312495,-84.5161913,"230.0660553",40000,1915,FALSE,FALSE
2002,228,"Clemson","Tigers","CLEM",NA,"CLEM","Clemson","ACC",NA,"#F66733","#522d80",3836,"Memorial Stadium","Clemson","SC","29634","US","America/New_York",34.6787737,-82.8432428,"205.6452179",81500,1942,FALSE,FALSE
2002,38,"Colorado","Buffaloes","COLO",NA,"COLO","Colorado","Big 12","North","#d1c57e","#ffd200",3726,"Folsom Field","Boulder","CO","80309","US","America/Denver",40.0094746,-105.266905,"1634.041138",50183,1924,FALSE,FALSE
2002,36,"Colorado State","Rams","CSU",NA,"CSU","Colorado State","Mountain West",NA,"#004537","#ffc425",3761,"Sonny Lubick Field at Hughes Stadium","Fort Collins","CO","80526","US","America/Denver",40.5621183,-105.1416248,"1574.920898",34400,1968,FALSE,FALSE
2002,41,"Connecticut","Huskies","CONN",NA,"CONN","UConn","FBS Independents",NA,"#001d40","#f1f2f3",3892,"Rentschler Field","East Hartford","CT","6118 ","US","America/New_York",41.7595675,-72.6187728,"6.515614986",40000,2003,FALSE,FALSE
2002,150,"Duke","Blue Devils","DUKE",NA,"DUKE","Duke","ACC",NA,"#001A57","#f1f2f3",3982,"Wallace Wade Stadium","Durham","NC","27708","US","America/New_York",35.9953688,-78.9417564,"103.0028152",40004,1929,FALSE,FALSE
2002,151,"East Carolina","Pirates","ECU",NA,"ECU","ECU","Conference USA",NA,"#4b1869","#f0907b",3699,"Dowdy-Ficklen Stadium","Greenville","NC","27858","US","America/New_York",35.5968486,-77.364564,"19.0564537",50000,1963,FALSE,FALSE
2002,2199,"Eastern Michigan","Eagles","EMU",NA,"EMU","E Michigan","Mid-American","West","#00331b","#f0f0f0",3912,"Rynearson Stadium","Ypsilanti","MI","48197","US","America/Detroit",42.256126,-83.647285,"241.248764",30200,1969,FALSE,FALSE
2002,57,"Florida","Gators","FLA",NA,"FLA","Florida","SEC","East","#0021A5","#0021a5",3634,"Ben Hill Griffin Stadium","Gainesville","FL","32653","US","America/New_York",29.6499357,-82.3485788,"44.97250748",88548,1930,TRUE,FALSE
2002,52,"Florida State","Seminoles","FSU",NA,"FSU","FSU","ACC",NA,"#782F40","#ceb888",3697,"Bobby Bowden Field at Doak Campbell Stadium","Tallahassee","FL","32306","US","America/New_York",30.4381692,-84.3044032,"19.55942535",79560,1950,FALSE,FALSE
2002,278,"Fresno State","Bulldogs","FRES",NA,"FRES","Fresno State","Western Athletic",NA,"#c41230","#231f20",3660,"Bulldog Stadium","Fresno","CA","93740","US","America/Los_Angeles",36.8143527,-119.7580092,"102.564064",41031,1980,FALSE,FALSE
2002,61,"Georgia","Bulldogs","UGA",NA,"UGA","Georgia","SEC","East","#CC0000","#000000",3917,"Sanford Stadium","Athens","GA","30602","US","America/New_York",33.9498197,-83.3733813,"186.1120758",92746,1929,TRUE,FALSE
2002,59,"Georgia Tech","Yellow Jackets","GT",NA,"GT","Georgia Tech","ACC",NA,"#00223e","#002c56",721,"Bobby Dodd Stadium at Historic Grant Field","Atlanta","GA","30332","US","America/New_York",33.7724449,-84.3928054,"279.300415",55000,1913,TRUE,FALSE
2002,62,"Hawai'i","Rainbow Warriors","HAW",NA,"HAW","Hawai'i","Western Athletic",NA,"#003420","#ffffff",3610,"Aloha Stadium","Honolulu","HI","96818","US","Pacific/Honolulu",21.3728014,-157.9299645,"10.26500511",50000,1975,FALSE,FALSE
2002,248,"Houston","Cougars","HOU",NA,"HOU","Houston","Conference USA",NA,"#C90822","#231f20",453,"Robertson Stadium","Houston","TX","77004","US","America/Chicago",29.722053,-95.349175,"9.6",32000,1942,FALSE,FALSE
2002,70,"Idaho","Vandals","IDHO",NA,"IDHO","Idaho","Sun Belt",NA,"#000000","#8c6e4a",3791,"Kibbie Dome","Moscow","ID","83843","US","America/Los_Angeles",46.7262921,-117.0173713,"794.4794922",16000,1975,FALSE,TRUE
2002,356,"Illinois","Fighting Illini","ILL",NA,"ILL","Illinois","Big Ten",NA,"#f77329","#fa6300",3597,"Alumni Memorial Field","Lexington","VA","24450","US","America/New_York",37.788983,-79.43505,"294.958252",10000,1962,TRUE,FALSE
2002,84,"Indiana","Hoosiers","IND",NA,"IND","Indiana","Big Ten",NA,"#7D110C","#eeedeb",3830,"Memorial Stadium","Bloomington","IN","47408","US","America/Indiana/Indianapolis",39.1808959,-86.5256217,"231.6500854",52656,1960,FALSE,FALSE
2002,2294,"Iowa","Hawkeyes","IOWA",NA,"IOWA","Iowa","Big Ten",NA,"#000000","#ffe100",3793,"Kinnick Stadium","Iowa City","IA","52242","US","America/Chicago",41.6586045,-91.5510829,"220.6357727",69250,1929,FALSE,FALSE
2002,66,"Iowa State","Cyclones","ISU",NA,"ISU","Iowa State","Big 12","North","#660015","#830b2c",3772,"Jack Trice Stadium","Ames","IA","50011","US","America/Chicago",42.0139977,-93.6357716,"274.9135437",61500,1975,FALSE,FALSE
2002,2305,"Kansas","Jayhawks","KU",NA,"KU","Kansas","Big 12","North","#0022B4","#e8000d",3833,"Memorial Stadium","Lawrence","KS","66045","US","America/Chicago",38.9629418,-95.2463686,"274.855957",47000,1921,FALSE,FALSE
2002,2306,"Kansas State","Wildcats","KSU",NA,"KSU","Kansas State","Big 12","North","#633194","#e7d2ad",3636,"Bill Snyder Family Football Stadium","Manhattan","KS","66502","US","America/Chicago",39.2020096,-96.5938395,"328.0574646",50000,1968,FALSE,FALSE
2002,2309,"Kent State","Golden Flashes","KENT",NA,"KENT","Kent State","Mid-American","East","#002445","#f0b510",3696,"Dix Stadium","Kent","OH","44242","US","America/New_York",41.1390935,-81.31346,"321.3641663",25319,1969,FALSE,FALSE
2002,96,"Kentucky","Wildcats","UK",NA,"UK","Kentucky","SEC","East","#005DAA","#ffffff",3683,"Commonwealth Stadium","Lexington","KY","40506","US","America/New_York",38.0220905,-84.5053408,"307.4248962",61000,1973,TRUE,FALSE
2002,309,"Louisiana","Ragin' Cajuns","ULL","UL Lafayette","ULL","Louisiana","Sun Belt",NA,"#ce2842",NA,3666,"Cajun Field","Lafayette","LA","70506","US","America/Chicago",30.2158434,-92.0417371,"3.556508303",41426,1971,FALSE,FALSE
2002,2433,"Louisiana Monroe","Warhawks","ULM","La.-Monroe","ULM","UL Monroe","Sun Belt",NA,"#231F20","#b18445",3817,"Malone Stadium","Monroe","LA","71209","US","America/Chicago",32.5308089,-92.0660602,"22.998209",30427,1978,FALSE,FALSE
2002,2348,"Louisiana Tech","Bulldogs","LT",NA,"LT","LA Tech","Western Athletic",NA,"#002d65","#d3313a",3776,"Joe Aillet Stadium","Ruston","LA","71272","US","America/Chicago",32.5321487,-92.6560019,"72.87982941",28019,1968,FALSE,FALSE
2002,97,"Louisville","Cardinals","LOU",NA,"LOU","Louisville","Conference USA",NA,"#ad000a","#cccccc",3873,"Papa John's Cardinal Stadium","Louisville","KY","40292","US","America/Kentucky/Louisville",38.2057621,-85.7588141,"138.5615997",60000,1998,FALSE,FALSE
2002,99,"LSU","Tigers","LSU","Louisiana State","LSU","LSU","SEC","West","#fdd023","#2b0d57",3958,"Tiger Stadium","Baton Rouge","LA","70803","US","America/Chicago",30.412035,-91.1838163,"7.640734673",102321,1924,TRUE,FALSE
2002,276,"Marshall","Thundering Herd","MRSH",NA,"MRSH","Marshall","Mid-American","East","#186329","#be854c",3775,"Joan C. Edwards Stadium","Huntington","WV","25755","US","America/New_York",38.4247042,-82.4214412,"163.7328186",38016,1991,FALSE,FALSE
2002,120,"Maryland","Terrapins","MD",NA,"MD","Maryland","ACC",NA,"#D5002B","#ffcd00",3665,"Maryland Stadium","College Park","MD","20742","US","America/New_York",38.9903332,-76.9473792,"32.68748093",51802,1950,FALSE,FALSE
2002,235,"Memphis","Tigers","MEM",NA,"MEM","Memphis","Conference USA",NA,"#003087","#898d8d",3805,"Liberty Bowl Memorial Stadium","Memphis","TN","38152","US","America/Chicago",35.1209429,-89.977147,"90.62445831",58325,1965,FALSE,FALSE
2002,2390,"Miami","Hurricanes","MIAMI","Miami (FL)","MIAMI","Miami","Big East",NA,"#004325","#f0f0f0",3948,"Hard Rock Stadium","Miami Gardens","FL","33299","US","America/New_York",25.9579665,-80.2388604,"2.624486446",64767,1987,TRUE,FALSE
2002,193,"Miami (OH)","RedHawks","M-OH",NA,"M-OH","Miami (OH)","Mid-American","East","#a4000c","#f0f0f0",3996,"Yager Stadium","Oxford","OH","45056","US","America/New_York",39.5197009,-84.7330255,"242.2643585",24286,1983,FALSE,FALSE
2002,130,"Michigan","Wolverines","MICH",NA,"MICH","Michigan","Big Ten",NA,"#00274c","#00274c",3558,"Michigan Stadium","Ann Arbor","MI","48109","US","America/Detroit",42.2658365,-83.7486956,"255.5500031",107601,1927,FALSE,FALSE
2002,127,"Michigan State","Spartans","MSU",NA,"MSU","Michigan State","Big Ten",NA,"#18453B","#ffffff",3936,"Spartan Stadium","East Lansing","MI","48824","US","America/Detroit",42.7281474,-84.4848526,"254.8794861",75005,1923,FALSE,FALSE
2002,2393,"Middle Tennessee","Blue Raiders","MTSU","Middle Tennessee State","MTSU","Mid Tennessee","Sun Belt",NA,"#0079C2","#c3c5c8",3725,"Johnny Red"""" Floyd Stadium""""","Murfreesboro","TN","37132","US","America/Chicago",35.8511463,-86.3681649,"191.7279816",30788,1933,FALSE,FALSE
2002,135,"Minnesota","Golden Gophers","MINN",NA,"MINN","Minnesota","Big Ten",NA,"#981a31","#981a31",3953,"TCF Bank Stadium","Minneapolis","MN","55488","US","America/Chicago",44.976525,-93.2245462,"254.3902283",50850,2009,FALSE,FALSE
2002,344,"Mississippi State","Bulldogs","MSST",NA,"MSST","Miss St","SEC","West","#762123","#c8c8c8",3693,"Davis Wade Stadium","Starkville","MS","39762","US","America/Chicago",33.4563403,-88.7933652,"110.2742081",61337,1914,TRUE,FALSE
2002,142,"Missouri","Tigers","MIZ",NA,"MIZ","Missouri","Big 12","North","#000000","#000000",3838,"Faurot Field","Columbia","MO","65211","US","America/Chicago",38.9358491,-92.3332009,"212.6865692",71168,1927,FALSE,FALSE
2002,2426,"Navy","Midshipmen","NAVY",NA,"NAVY","Navy","FBS Independents",NA,"#131630","#b6a77c",3852,"Navy-Marine Corps Memorial Stadium","Annapolis","MD","21402","US","America/New_York",38.9846985,-76.5076335,"10.74990082",34000,1959,TRUE,FALSE
2002,152,"NC State","Wolfpack","NCST","North Carolina St.","NCST","NC State","ACC",NA,"#EF1216","#231f20",3670,"Carter-Finley Stadium","Raleigh","NC","27695","US","America/New_York",35.8008001,-78.7195655,"117.0089951",58000,1966,FALSE,FALSE
2002,158,"Nebraska","Cornhuskers","NEB",NA,"NEB","Nebraska","Big 12","North","#F20017","#f5f1e7",3834,"Memorial Stadium","Lincoln","NE","68588","US","America/Chicago",40.820682,-96.705594,"354.9318848",85458,1923,FALSE,FALSE
2002,2440,"Nevada","Wolf Pack","NEV",NA,"NEV","Nevada","Western Athletic",NA,"#153E5F","#8e9295",3816,"Mackay Stadium","Reno","NV","89557","US","America/Los_Angeles",39.5469459,-119.8175435,"1406.57605",27000,1966,FALSE,FALSE
2002,167,"New Mexico","Lobos","UNM",NA,"UNM","New Mexico","Mountain West",NA,"#000000","#231f20",3971,"University Stadium","Albuquerque","NM","87131","US","America/Denver",35.0669479,-106.6283225,"1554.471924",39224,1960,FALSE,FALSE
2002,166,"New Mexico State","Aggies","NMSU",NA,"NMSU","New Mexico St","Sun Belt",NA,"#891216","#000000",3601,"Aggie Memorial Stadium","Las Cruces","NM","88003","US","America/Denver",32.2796202,-106.7411148,"1208.201294",28853,1978,FALSE,FALSE
2002,153,"North Carolina","Tar Heels","UNC",NA,"UNC","UNC","ACC",NA,"#99bfe5","#13294b",3787,"Kenan Memorial Stadium","Chapel Hill","NC","27515","US","America/New_York",35.9069294,-79.0478889,"127.7569809",50500,1927,FALSE,FALSE
2002,2459,"Northern Illinois","Huskies","NIU",NA,"NIU","N Illinois","Mid-American","West","#F1122C","#cc0000",3764,"Brigham Field at Huskie Stadium","DeKalb","IL","60115","US","America/Chicago",41.9339586,-88.7778357,"267.4530029",23595,1965,FALSE,FALSE
2002,249,"North Texas","Mean Green","UNT",NA,"UNT","North Texas","Sun Belt",NA,"#00853D","#000000",3825,"Apogee Stadium","Denton","TX","76210","US","America/Chicago",33.203899,-97.159245,"198.6871948",30850,2011,FALSE,FALSE
2002,77,"Northwestern","Wildcats","NW",NA,"NW","Northwestern","Big Ten",NA,"#372286","#d6cac1",3911,"Ryan Field","Evanston","IL","60208","US","America/Chicago",42.0653994,-87.6924751,"181.2376099",47130,1926,FALSE,FALSE
2002,87,"Notre Dame","Fighting Irish","ND",NA,"ND","Notre Dame","FBS Independents",NA,"#00122b","#ae9142",3855,"Notre Dame Stadium","Notre Dame","IN","46556","US","America/Indiana/Indianapolis",41.698378,-86.2339425,"222.645401",80795,1930,FALSE,FALSE
2002,195,"Ohio","Bobcats","OHIO",NA,"OHIO","Ohio","Mid-American","East","#295A29","#e4bb85",3876,"Peden Stadium","Athens","OH","45701","US","America/New_York",39.3212794,-82.1034315,"194.230896",24000,1929,FALSE,FALSE
2002,194,"Ohio State","Buckeyes","OSU",NA,"OSU","OSU","Big Ten",NA,"#DE3121","#666666",3861,"Ohio Stadium","Columbus","OH","43210","US","America/New_York",40.0016447,-83.0197266,"216.6770325",102780,1922,FALSE,FALSE
2002,201,"Oklahoma","Sooners","OKLA",NA,"OKLA","Oklahoma","Big 12","South","#7b0000","#cccccc",3835,"Gaylord Family Oklahoma Memorial Stadium","Norman","OK","73019","US","America/Chicago",35.2058537,-97.4423145,"355.0962524",86112,1925,FALSE,FALSE
2002,197,"Oklahoma State","Cowboys","OKST",NA,"OKST","Oklahoma State","Big 12","South","#FF6500","#ff9900",3646,"Boone Pickens Stadium","Stillwater","OK","74078","US","America/Chicago",36.125673,-97.066513,"276.4808655",55509,1919,FALSE,FALSE
2002,145,"Ole Miss","Rebels","MISS",NA,"MISS","Ole Miss","SEC","West","#001148","#00205b",3974,"Vaught-Hemingway Stadium","Oxford","MS","38677","US","America/Chicago",34.3619837,-89.5342076,"146.8517151",64038,1915,TRUE,FALSE
2002,2483,"Oregon","Ducks","ORE",NA,"ORE","Oregon","Pac-10",NA,"#044520","#fee123",3626,"Autzen Stadium","Eugene","OR","97401","US","America/Los_Angeles",44.0582712,-123.0684883,"127.4198303",54000,1967,FALSE,FALSE
2002,204,"Oregon State","Beavers","ORST",NA,"ORST","Oregon State","Pac-10",NA,"#c34500","#dea076",3893,"Reser Stadium","Corvallis","OR","97331","US","America/Los_Angeles",44.5594559,-123.2814341,"66.90744781",43363,1953,FALSE,FALSE
2002,213,"Penn State","Nittany Lions","PSU",NA,"PSU","Penn State","Big Ten",NA,"#00265D","#002e5c",3632,"Beaver Stadium","University Park","PA","16802","US","America/New_York",40.8121958,-77.8561023,"354.1551514",106572,1960,FALSE,FALSE
2002,221,"Pittsburgh","Panthers","PITT","Pitt","PITT","Pitt","Big East",NA,"#003263","#231f20",3752,"Heinz Field","Pittsburgh","PA","15260","US","America/New_York",40.4467648,-80.0157603,"220.5887146",68400,2001,FALSE,FALSE
2002,2509,"Purdue","Boilermakers","PUR",NA,"PUR","Purdue","Big Ten",NA,"#B89D29","#a4a9ad",3907,"Ross-Ade Stadium","West Lafayette","IN","47907","US","America/Indiana/Indianapolis",40.4352253,-86.9186843,"197.5337677",57282,1924,FALSE,FALSE
2002,242,"Rice","Owls","RICE",NA,"RICE","Rice","Western Athletic",NA,"#003D7D","#d1d5d8",3895,"Rice Stadium","Houston","TX","77251","US","America/Chicago",29.7163297,-95.4093261,"7.148301601",47000,1950,FALSE,FALSE
2002,164,"Rutgers","Scarlet Knights","RUTG",NA,"RUTG","Rutgers","Big East",NA,"#d21034","#ffffff",3754,"High Point Solutions Stadium","Piscataway","NJ","8854 ","US","America/New_York",40.5136754,-74.4655737,"8.543146133",52454,1994,FALSE,FALSE
2002,21,"San Diego State","Aztecs","SDSU",NA,"SDSU","San Diego State","Mountain West",NA,"#BF2C37","#a8996e",3932,"Qualcomm Stadium","San Diego","CA","92108","US","America/Los_Angeles",32.7831122,-117.1195716,"16.28476334",70561,1967,FALSE,FALSE
2002,23,"San José State","Spartans","SJSU","San Jose St.","SJSU","San Jose State","Western Athletic",NA,"#005893","#fdba31",3935,"Spartan Stadium","San Jose","CA","95112","US","America/Los_Angeles",37.3196675,-121.8682962,"28.30708694",30456,1933,FALSE,FALSE
2002,2567,"SMU","Mustangs","SMU","Southern Methodist","SMU","SMU","Western Athletic",NA,"#E32F38","#ecdcb9",3735,"Gerald J. Ford Stadium","University Park","TX","75275","US","America/Chicago",32.8377223,-96.7827859,"169.4058075",32000,2000,FALSE,FALSE
2002,2579,"South Carolina","Gamecocks","SC",NA,"SC","South Carolina","SEC","East","#670010","#000000",3994,"Williams-Brice Stadium","Columbia","SC","29208","US","America/New_York",33.9730239,-81.0191726,"60.54548645",80250,1934,TRUE,FALSE
2002,2572,"Southern Mississippi","Golden Eagles","USM",NA,"USM","Southern Miss","Conference USA",NA,"#FFAA3C","#ffc423",3815,"M. M. Roberts Stadium","Hattiesburg","MS","39402","US","America/Chicago",31.3289321,-89.3318118,"64.52726746",36000,1932,FALSE,FALSE
2002,58,"South Florida","Bulls","USF",NA,"USF","USF","FBS Independents",NA,"#004A36","#231f20",3886,"Raymond James Stadium","Tampa","FL","33620","US","America/New_York",27.9758691,-82.5033344,"11.07972908",65828,1998,FALSE,FALSE
2002,24,"Stanford","Cardinal","STAN",NA,"STAN","Stanford","Pac-10",NA,"#A80532","#ffffff",3940,"Stanford Stadium","Stanford","CA","94305","US","America/Los_Angeles",37.4345556,-122.1611271,"18.38425636",50424,2006,FALSE,FALSE
2002,183,"Syracuse","Orange","SYR",NA,"SYR","Syracuse","Big East",NA,"#F37321","#0d1d37",1964,"Carrier Dome","Syracuse","NY","13244","US","America/New_York",43.0362269,-76.1363161,"162.6989746",49057,1980,FALSE,TRUE
2002,2628,"TCU","Horned Frogs","TCU","Texas Christian","TCU","TCU","Conference USA",NA,"#3C377D","#f1f2f3",3616,"Amon G. Carter Stadium","Fort Worth","TX","76129","US","America/Chicago",32.7096604,-97.3680835,"185.4387054",46000,1929,FALSE,FALSE
2002,218,"Temple","Owls","TEM",NA,"TEM","Temple","Big East",NA,"#A80532","#a7a9ac",3806,"Lincoln Financial Field","Philadelphia","PA","19122","US","America/New_York",39.9007995,-75.1675414,"3.198706865",69879,2003,FALSE,FALSE
2002,2633,"Tennessee","Volunteers","TENN",NA,"TENN","Tennessee","SEC","East","#EE9627","#ffffff",3853,"Neyland Stadium","Knoxville","TN","37996","US","America/New_York",35.9550131,-83.9250128,"271.9517212",102455,1921,TRUE,FALSE
2002,251,"Texas","Longhorns","TEX",NA,"TEX","Texas","Big 12","South","#EE7524","#f0f0f0",3910,"Darrell K Royal-Texas Memorial Stadium","Austin","TX","78712","US","America/Chicago",30.2836813,-97.7325345,"160.3089447",100119,1924,FALSE,FALSE
2002,245,"Texas A&M","Aggies","TA&M",NA,"TA&M","Texas A&M","Big 12","South","#5C0025","#ffffff",3795,"Kyle Field","College Station","TX","77843","US","America/Chicago",30.6098891,-96.3403828,"108.824585",102733,1927,TRUE,FALSE
2002,2641,"Texas Tech","Red Raiders","TTU",NA,"TTU","Texas Tech","Big 12","South","#C80025","#231f20",3784,"Jones AT&T Stadium","Lubbock","TX","79409","US","America/Chicago",33.5910518,-101.8728824,"980.7632446",60454,1947,FALSE,FALSE
2002,2649,"Toledo","Rockets","TOL",NA,"TOL","Toledo","Mid-American","West","#ffffff","#ffd51d",3739,"Glass Bowl","Toledo","OH","43606","US","America/New_York",41.6574777,-83.6135652,"181.4839783",26038,1937,FALSE,FALSE
2002,2653,"Troy","Trojans","TROY",NA,"TROY","Troy","FBS Independents",NA,"#AE0210","#88898c",3975,"Veterans Memorial Stadium","Troy","AL","36082","US","America/Chicago",31.7995565,-85.9518328,"154.7746277",30000,1950,FALSE,FALSE
2002,2655,"Tulane","Green Wave","TULN",NA,"TULN","Tulane","Conference USA",NA,"#005837","#3baf29",4729,"Benson Field at Yulman Stadium","New Orleans","LA","70118","US","America/Chicago",29.944616,-90.116692,"0.0000000000000000000000000000000000000118",30000,2014,FALSE,FALSE
2002,202,"Tulsa","Golden Hurricane","TLSA",NA,"TLSA","Tulsa","Western Athletic",NA,"#004371","#ee3b33",3674,"Skelly Field at H. A. Chapman Stadium","Tulsa","OK","74194","US","America/Chicago",36.1489175,-95.9437853,"235.5928345",30000,1930,FALSE,FALSE
2002,5,"UAB","Blazers","UAB","Alabama-Birmingham","UAB","UAB","Conference USA",NA,"#003b28","#ffc845",3803,"Legion Field","Birmingham","AL","35294","US","America/Chicago",33.511389,-86.842778,"174.6382141",72000,1927,FALSE,FALSE
2002,2116,"UCF","Knights","UCF","Central Florida","UCF","UCF","Mid-American","East","#000000","#231f20",3652,"Bright House Networks Stadium","Orlando","FL","32816","US","America/New_York",28.6079765,-81.1927233,"20.94113731",44206,2007,FALSE,FALSE
2002,26,"UCLA","Bruins","UCLA",NA,"UCLA","UCLA","Pac-10",NA,"#005C8E","#ffc72c",1056,"Rose Bowl","Pasadena","CA","90095","US","America/Los_Angeles",34.1613284,-118.1676462,"245.1772461",88565,1922,FALSE,FALSE
2002,2439,"UNLV","Rebels","UNLV","Nevada-Las Vegas","UNLV","UNLV","Mountain West",NA,"#000000","#c2c4c6",3914,"Sam Boyd Stadium","Whitney","NV","89154","US","America/Los_Angeles",36.085935,-115.01731,"490.0622253",36800,1971,FALSE,FALSE
2002,30,"USC","Trojans","USC",NA,"USC","USC","Pac-10",NA,"#ffc72c","#ae2531",477,"Los Angeles Memorial Coliseum","Los Angeles","CA","90089","US","America/Los_Angeles",34.014167,-118.287778,"42.50374222",77500,1923,TRUE,FALSE
2002,254,"Utah","Utes","UTAH",NA,"UTAH","Utah","Mountain West",NA,"#890012","#7e8083",587,"Rice-Eccles Stadium","Salt Lake City","UT","84112","US","America/Denver",40.7599724,-111.8488255,"1411.543579",45807,1998,FALSE,FALSE
2002,328,"Utah State","Aggies","USU",NA,"USU","Utah State","FBS Independents",NA,"#003263","#949ca1",3905,"Romney Stadium","Logan","UT","84322","US","America/Denver",41.7517394,-111.8116007,"1427.914429",25513,1968,FALSE,FALSE
2002,2638,"UTEP","Miners","UTEP","Texas-El Paso","UTEP","UTEP","Western Athletic",NA,"#ff8200","#041e42",3946,"Sun Bowl Stadium","El Paso","TX","79968","US","America/Denver",31.7733353,-106.507957,"1183.697876",51500,1963,FALSE,FALSE
2002,238,"Vanderbilt","Commodores","VAN",NA,"VAN","Vanderbilt","SEC","East","#000000","#231f20",3973,"Vanderbilt Stadium","Nashville","TN","37212","US","America/Chicago",36.1440455,-86.8088942,"159.9194641",40351,1922,FALSE,FALSE
2002,258,"Virginia","Cavaliers","UVA",NA,"UVA","UVA","ACC",NA,"#f84c1e","#ffffff",3923,"Scott Stadium","Charlottesville","VA","22904","US","America/New_York",38.0311801,-78.5137897,"170.4677429",61500,1931,FALSE,FALSE
2002,259,"Virginia Tech","Hokies","VT",NA,"VT","VT","Big East",NA,"#74232D","#c2c1ba",3799,"Lane Stadium","Blacksburg","VA","24061","US","America/New_York",37.2199873,-80.4180643,"632.2631226",65632,1965,FALSE,FALSE
2002,154,"Wake Forest","Demon Deacons","WAKE",NA,"WAKE","Wake Forest","ACC",NA,"#9E7E38","#000000",3630,"BB&T Field","Winston-Salem","NC","27105","US","America/New_York",36.1305507,-80.2545851,"283.548584",31500,1968,FALSE,FALSE
2002,264,"Washington","Huskies","WASH",NA,"WASH","Washington","Pac-10",NA,"#2B2F64","#e8e3d3",3765,"Husky Stadium","Seattle","WA","98195","US","America/Los_Angeles",47.6503235,-122.3015746,"11.65622807",70138,1920,FALSE,FALSE
2002,265,"Washington State","Cougars","WSU",NA,"WSU","Washington St","Pac-10",NA,"#94022a","#6a747c",3820,"Martin Stadium","Pullman","WA","99164","US","America/Los_Angeles",46.731831,-117.1604991,"773.9526367",32952,1972,FALSE,FALSE
2002,2711,"Western Michigan","Broncos","WMU",NA,"WMU","W Michigan","Mid-American","West","#532e1f","#8b7f79",3980,"Waldo Stadium","Kalamazoo","MI","49008","US","America/Detroit",42.2860064,-85.6007573,"243.8211212",30200,1939,FALSE,FALSE
2002,277,"West Virginia","Mountaineers","WVU",NA,"WVU","West Virginia","Big East",NA,"#FFC600","#eaaa00",3842,"Mountaineer Field at Milan Puskar Stadium","Morgantown","WV","26507","US","America/New_York",39.6502744,-79.9551873,"327.409668",60000,1980,FALSE,FALSE
2002,275,"Wisconsin","Badgers","WIS",NA,"WIS","Wisconsin","Big Ten",NA,"#A00001","#f7f7f7",347,"Camp Randall Stadium","Madison","WI","53711","US","America/Chicago",43.06994,-89.4126943,"263.604126",80321,1917,FALSE,FALSE
2002,2751,"Wyoming","Cowboys","WYO",NA,"WYO","Wyoming","Mountain West",NA,"#533B22","#ffffff",3984,"War Memorial Stadium","Laramie","WY","82071","US","America/Denver",41.31161,-105.5681384,"2200.153564",29181,1950,FALSE,FALSE
2003,2005,"Air Force","Falcons","AFA",NA,"AFA","Air Force","Mountain West",NA,"#004a7b","#ffffff",3713,"Falcon Stadium","Colorado Springs","CO","80840","US","America/Denver",38.9969701,-104.8436165,"2024.875732",46692,1962,FALSE,FALSE
2003,2006,"Akron","Zips","AKR",NA,"AKR","Akron","Mid-American","East","#00285e","#84754e",3768,"Summa Field at InfoCision Stadium","Akron","OH","44399","US","America/New_York",41.0725534,-81.5083408,"321.2875061",30000,2009,FALSE,FALSE
2003,333,"Alabama","Crimson Tide","ALA",NA,"ALA","Alabama","SEC","West","#690014","#f1f2f3",3657,"Bryant Denny Stadium","Tuscaloosa","AL","35487","US","America/Chicago",33.2082752,-87.5503836,"70.05136108",101821,1929,TRUE,FALSE
2003,12,"Arizona","Wildcats","ARIZ",NA,"ARIZ","Arizona","Pac-10",NA,"#002449","#00205b",3619,"Arizona Stadium","Tucson","AZ","85721","US","America/Phoenix",32.2288054,-110.9488677,"742.1530151",50782,1928,FALSE,FALSE
2003,9,"Arizona State","Sun Devils","ASU",NA,"ASU","Arizona State","Pac-10",NA,"#942139","#f1f2f3",3947,"Sun Devil Stadium","Tempe","AZ","85287","US","America/Phoenix",33.4264471,-111.9325005,"360.1569519",65870,1958,FALSE,FALSE
2003,8,"Arkansas","Razorbacks","ARK",NA,"ARK","Arkansas","SEC","West","#9c1831","#000000",3887,"Donald W. Reynolds Razorback Stadium Frank Broyles Field","Fayetteville","AR","72702","US","America/Chicago",36.0680662,-94.1789534,"403.7972412",80000,1938,FALSE,FALSE
2003,2032,"Arkansas State","Red Wolves","ARST",NA,"ARST","Arkansas State","Sun Belt",NA,"#e81018","#000000",3625,"Centennial Bank Stadium","Jonesboro","AR","72404","US","America/Chicago",35.8488977,-90.6677436,"89.52690887",30382,1974,FALSE,FALSE
2003,349,"Army","Black Knights","ARMY",NA,"ARMY","Army","Conference USA",NA,"#ce9c00","#231f20",3841,"Blaik Field at Michie Stadium","West Point","NY","10996","US","America/New_York",41.3874924,-73.9640891,"99.21277618",38000,1924,FALSE,FALSE
2003,2,"Auburn","Tigers","AUB",NA,"AUB","Auburn","SEC","West","#03244d","#f1f2f3",3785,"Jordan-Hare Stadium","Auburn","AL","36849","US","America/Chicago",32.6025532,-85.4897479,"201.1737976",87451,1939,TRUE,FALSE
2003,2050,"Ball State","Cardinals","BALL",NA,"BALL","Ball State","Mid-American","West","#DA0000","#ffffff",3919,"Scheumann Stadium","Muncie","IN","47306","US","America/Indiana/Indianapolis",40.2159422,-85.4161148,"285.481781",22500,1967,FALSE,FALSE
2003,239,"Baylor","Bears","BAY",NA,"BAY","Baylor","Big 12","South","#004834","#ffb81c",4727,"McLane Stadium","Waco","TX","76704","US","America/Chicago",31.5582015,-97.1156702,"117.0538101",45140,2014,FALSE,FALSE
2003,68,"Boise State","Broncos","BSU",NA,"BSU","Boise State","Western Athletic",NA,"#09347A","#d8d9da",3653,"Albertsons Stadium","Boise","ID","83725","US","America/Boise",43.6028839,-116.1958882,"823.2221069",36387,1970,FALSE,FALSE
2003,103,"Boston College","Eagles","BC",NA,"BC","Boston College","Big East",NA,"#88001a","#a39161",3615,"Alumni Stadium","Chestnut Hill","MA","2467 ","US","America/New_York",42.335104,-71.1664413,"39.82634354",44500,1957,FALSE,FALSE
2003,189,"Bowling Green","Falcons","BGSU","Bowling Green State","BGSU","Bowling Green","Mid-American","West","#2b1000","#492000",3700,"Doyt Perry Stadium","Bowling Green","OH","43403","US","America/New_York",41.3780114,-83.6225,"205.9057465",24000,1966,FALSE,FALSE
2003,2084,"Buffalo","Bulls","BUFF",NA,"BUFF","Buffalo","Mid-American","East","#041A9B","#ebebeb",3965,"UB Stadium","Amherst","NY","14260","US","America/New_York",42.9991334,-78.7775113,"181.5759735",30270,1993,FALSE,FALSE
2003,252,"BYU","Cougars","BYU","Brigham Young","BYU","BYU","Mountain West",NA,"#001E4C","#ffffff",3801,"LaVell Edwards Stadium","Provo","UT","84602","US","America/Denver",40.2575347,-111.6545247,"1412.097046",63470,1964,FALSE,FALSE
2003,25,"California","Golden Bears","CAL",NA,"CAL","Cal","Pac-10",NA,"#031522","#ffc423",3831,"California Memorial Stadium","Berkeley","CA","94720","US","America/Los_Angeles",37.8710434,-122.2507729,"125.3108063",62467,1923,FALSE,FALSE
2003,2117,"Central Michigan","Chippewas","CMU",NA,"CMU","Cent Michigan","Mid-American","West","#6a0032","#ffffff",3786,"Kelly/Shorts Stadium","Mount Pleasant","MI","48859","US","America/Detroit",43.5777313,-84.7709904,"240.9007721",30255,1972,FALSE,FALSE
2003,2132,"Cincinnati","Bearcats","CIN",NA,"CIN","Cincinnati","Conference USA",NA,"#000000","#717073",3854,"Nippert Stadium","Cincinnati","OH","45221","US","America/New_York",39.1312495,-84.5161913,"230.0660553",40000,1915,FALSE,FALSE
2003,228,"Clemson","Tigers","CLEM",NA,"CLEM","Clemson","ACC",NA,"#F66733","#522d80",3836,"Memorial Stadium","Clemson","SC","29634","US","America/New_York",34.6787737,-82.8432428,"205.6452179",81500,1942,FALSE,FALSE
2003,38,"Colorado","Buffaloes","COLO",NA,"COLO","Colorado","Big 12","North","#d1c57e","#ffd200",3726,"Folsom Field","Boulder","CO","80309","US","America/Denver",40.0094746,-105.266905,"1634.041138",50183,1924,FALSE,FALSE
2003,36,"Colorado State","Rams","CSU",NA,"CSU","Colorado State","Mountain West",NA,"#004537","#ffc425",3761,"Sonny Lubick Field at Hughes Stadium","Fort Collins","CO","80526","US","America/Denver",40.5621183,-105.1416248,"1574.920898",34400,1968,FALSE,FALSE
2003,41,"Connecticut","Huskies","CONN",NA,"CONN","UConn","FBS Independents",NA,"#001d40","#f1f2f3",3892,"Rentschler Field","East Hartford","CT","6118 ","US","America/New_York",41.7595675,-72.6187728,"6.515614986",40000,2003,FALSE,FALSE
2003,150,"Duke","Blue Devils","DUKE",NA,"DUKE","Duke","ACC",NA,"#001A57","#f1f2f3",3982,"Wallace Wade Stadium","Durham","NC","27708","US","America/New_York",35.9953688,-78.9417564,"103.0028152",40004,1929,FALSE,FALSE
2003,151,"East Carolina","Pirates","ECU",NA,"ECU","ECU","Conference USA",NA,"#4b1869","#f0907b",3699,"Dowdy-Ficklen Stadium","Greenville","NC","27858","US","America/New_York",35.5968486,-77.364564,"19.0564537",50000,1963,FALSE,FALSE
2003,2199,"Eastern Michigan","Eagles","EMU",NA,"EMU","E Michigan","Mid-American","West","#00331b","#f0f0f0",3912,"Rynearson Stadium","Ypsilanti","MI","48197","US","America/Detroit",42.256126,-83.647285,"241.248764",30200,1969,FALSE,FALSE
2003,57,"Florida","Gators","FLA",NA,"FLA","Florida","SEC","East","#0021A5","#0021a5",3634,"Ben Hill Griffin Stadium","Gainesville","FL","32653","US","America/New_York",29.6499357,-82.3485788,"44.97250748",88548,1930,TRUE,FALSE
2003,52,"Florida State","Seminoles","FSU",NA,"FSU","FSU","ACC",NA,"#782F40","#ceb888",3697,"Bobby Bowden Field at Doak Campbell Stadium","Tallahassee","FL","32306","US","America/New_York",30.4381692,-84.3044032,"19.55942535",79560,1950,FALSE,FALSE
2003,278,"Fresno State","Bulldogs","FRES",NA,"FRES","Fresno State","Western Athletic",NA,"#c41230","#231f20",3660,"Bulldog Stadium","Fresno","CA","93740","US","America/Los_Angeles",36.8143527,-119.7580092,"102.564064",41031,1980,FALSE,FALSE
2003,61,"Georgia","Bulldogs","UGA",NA,"UGA","Georgia","SEC","East","#CC0000","#000000",3917,"Sanford Stadium","Athens","GA","30602","US","America/New_York",33.9498197,-83.3733813,"186.1120758",92746,1929,TRUE,FALSE
2003,59,"Georgia Tech","Yellow Jackets","GT",NA,"GT","Georgia Tech","ACC",NA,"#00223e","#002c56",721,"Bobby Dodd Stadium at Historic Grant Field","Atlanta","GA","30332","US","America/New_York",33.7724449,-84.3928054,"279.300415",55000,1913,TRUE,FALSE
2003,62,"Hawai'i","Rainbow Warriors","HAW",NA,"HAW","Hawai'i","Western Athletic",NA,"#003420","#ffffff",3610,"Aloha Stadium","Honolulu","HI","96818","US","Pacific/Honolulu",21.3728014,-157.9299645,"10.26500511",50000,1975,FALSE,FALSE
2003,248,"Houston","Cougars","HOU",NA,"HOU","Houston","Conference USA",NA,"#C90822","#231f20",453,"Robertson Stadium","Houston","TX","77004","US","America/Chicago",29.722053,-95.349175,"9.6",32000,1942,FALSE,FALSE
2003,70,"Idaho","Vandals","IDHO",NA,"IDHO","Idaho","Sun Belt",NA,"#000000","#8c6e4a",3791,"Kibbie Dome","Moscow","ID","83843","US","America/Los_Angeles",46.7262921,-117.0173713,"794.4794922",16000,1975,FALSE,TRUE
2003,356,"Illinois","Fighting Illini","ILL",NA,"ILL","Illinois","Big Ten",NA,"#f77329","#fa6300",3597,"Alumni Memorial Field","Lexington","VA","24450","US","America/New_York",37.788983,-79.43505,"294.958252",10000,1962,TRUE,FALSE
2003,84,"Indiana","Hoosiers","IND",NA,"IND","Indiana","Big Ten",NA,"#7D110C","#eeedeb",3830,"Memorial Stadium","Bloomington","IN","47408","US","America/Indiana/Indianapolis",39.1808959,-86.5256217,"231.6500854",52656,1960,FALSE,FALSE
2003,2294,"Iowa","Hawkeyes","IOWA",NA,"IOWA","Iowa","Big Ten",NA,"#000000","#ffe100",3793,"Kinnick Stadium","Iowa City","IA","52242","US","America/Chicago",41.6586045,-91.5510829,"220.6357727",69250,1929,FALSE,FALSE
2003,66,"Iowa State","Cyclones","ISU",NA,"ISU","Iowa State","Big 12","North","#660015","#830b2c",3772,"Jack Trice Stadium","Ames","IA","50011","US","America/Chicago",42.0139977,-93.6357716,"274.9135437",61500,1975,FALSE,FALSE
2003,2305,"Kansas","Jayhawks","KU",NA,"KU","Kansas","Big 12","North","#0022B4","#e8000d",3833,"Memorial Stadium","Lawrence","KS","66045","US","America/Chicago",38.9629418,-95.2463686,"274.855957",47000,1921,FALSE,FALSE
2003,2306,"Kansas State","Wildcats","KSU",NA,"KSU","Kansas State","Big 12","North","#633194","#e7d2ad",3636,"Bill Snyder Family Football Stadium","Manhattan","KS","66502","US","America/Chicago",39.2020096,-96.5938395,"328.0574646",50000,1968,FALSE,FALSE
2003,2309,"Kent State","Golden Flashes","KENT",NA,"KENT","Kent State","Mid-American","East","#002445","#f0b510",3696,"Dix Stadium","Kent","OH","44242","US","America/New_York",41.1390935,-81.31346,"321.3641663",25319,1969,FALSE,FALSE
2003,96,"Kentucky","Wildcats","UK",NA,"UK","Kentucky","SEC","East","#005DAA","#ffffff",3683,"Commonwealth Stadium","Lexington","KY","40506","US","America/New_York",38.0220905,-84.5053408,"307.4248962",61000,1973,TRUE,FALSE
2003,309,"Louisiana","Ragin' Cajuns","ULL","UL Lafayette","ULL","Louisiana","Sun Belt",NA,"#ce2842",NA,3666,"Cajun Field","Lafayette","LA","70506","US","America/Chicago",30.2158434,-92.0417371,"3.556508303",41426,1971,FALSE,FALSE
2003,2433,"Louisiana Monroe","Warhawks","ULM","La.-Monroe","ULM","UL Monroe","Sun Belt",NA,"#231F20","#b18445",3817,"Malone Stadium","Monroe","LA","71209","US","America/Chicago",32.5308089,-92.0660602,"22.998209",30427,1978,FALSE,FALSE
2003,2348,"Louisiana Tech","Bulldogs","LT",NA,"LT","LA Tech","Western Athletic",NA,"#002d65","#d3313a",3776,"Joe Aillet Stadium","Ruston","LA","71272","US","America/Chicago",32.5321487,-92.6560019,"72.87982941",28019,1968,FALSE,FALSE
2003,97,"Louisville","Cardinals","LOU",NA,"LOU","Louisville","Conference USA",NA,"#ad000a","#cccccc",3873,"Papa John's Cardinal Stadium","Louisville","KY","40292","US","America/Kentucky/Louisville",38.2057621,-85.7588141,"138.5615997",60000,1998,FALSE,FALSE
2003,99,"LSU","Tigers","LSU","Louisiana State","LSU","LSU","SEC","West","#fdd023","#2b0d57",3958,"Tiger Stadium","Baton Rouge","LA","70803","US","America/Chicago",30.412035,-91.1838163,"7.640734673",102321,1924,TRUE,FALSE
2003,276,"Marshall","Thundering Herd","MRSH",NA,"MRSH","Marshall","Mid-American","East","#186329","#be854c",3775,"Joan C. Edwards Stadium","Huntington","WV","25755","US","America/New_York",38.4247042,-82.4214412,"163.7328186",38016,1991,FALSE,FALSE
2003,120,"Maryland","Terrapins","MD",NA,"MD","Maryland","ACC",NA,"#D5002B","#ffcd00",3665,"Maryland Stadium","College Park","MD","20742","US","America/New_York",38.9903332,-76.9473792,"32.68748093",51802,1950,FALSE,FALSE
2003,235,"Memphis","Tigers","MEM",NA,"MEM","Memphis","Conference USA",NA,"#003087","#898d8d",3805,"Liberty Bowl Memorial Stadium","Memphis","TN","38152","US","America/Chicago",35.1209429,-89.977147,"90.62445831",58325,1965,FALSE,FALSE
2003,2390,"Miami","Hurricanes","MIAMI","Miami (FL)","MIAMI","Miami","Big East",NA,"#004325","#f0f0f0",3948,"Hard Rock Stadium","Miami Gardens","FL","33299","US","America/New_York",25.9579665,-80.2388604,"2.624486446",64767,1987,TRUE,FALSE
2003,193,"Miami (OH)","RedHawks","M-OH",NA,"M-OH","Miami (OH)","Mid-American","East","#a4000c","#f0f0f0",3996,"Yager Stadium","Oxford","OH","45056","US","America/New_York",39.5197009,-84.7330255,"242.2643585",24286,1983,FALSE,FALSE
2003,130,"Michigan","Wolverines","MICH",NA,"MICH","Michigan","Big Ten",NA,"#00274c","#00274c",3558,"Michigan Stadium","Ann Arbor","MI","48109","US","America/Detroit",42.2658365,-83.7486956,"255.5500031",107601,1927,FALSE,FALSE
2003,127,"Michigan State","Spartans","MSU",NA,"MSU","Michigan State","Big Ten",NA,"#18453B","#ffffff",3936,"Spartan Stadium","East Lansing","MI","48824","US","America/Detroit",42.7281474,-84.4848526,"254.8794861",75005,1923,FALSE,FALSE
2003,2393,"Middle Tennessee","Blue Raiders","MTSU","Middle Tennessee State","MTSU","Mid Tennessee","Sun Belt",NA,"#0079C2","#c3c5c8",3725,"Johnny Red"""" Floyd Stadium""""","Murfreesboro","TN","37132","US","America/Chicago",35.8511463,-86.3681649,"191.7279816",30788,1933,FALSE,FALSE
2003,135,"Minnesota","Golden Gophers","MINN",NA,"MINN","Minnesota","Big Ten",NA,"#981a31","#981a31",3953,"TCF Bank Stadium","Minneapolis","MN","55488","US","America/Chicago",44.976525,-93.2245462,"254.3902283",50850,2009,FALSE,FALSE
2003,344,"Mississippi State","Bulldogs","MSST",NA,"MSST","Miss St","SEC","West","#762123","#c8c8c8",3693,"Davis Wade Stadium","Starkville","MS","39762","US","America/Chicago",33.4563403,-88.7933652,"110.2742081",61337,1914,TRUE,FALSE
2003,142,"Missouri","Tigers","MIZ",NA,"MIZ","Missouri","Big 12","North","#000000","#000000",3838,"Faurot Field","Columbia","MO","65211","US","America/Chicago",38.9358491,-92.3332009,"212.6865692",71168,1927,FALSE,FALSE
2003,2426,"Navy","Midshipmen","NAVY",NA,"NAVY","Navy","FBS Independents",NA,"#131630","#b6a77c",3852,"Navy-Marine Corps Memorial Stadium","Annapolis","MD","21402","US","America/New_York",38.9846985,-76.5076335,"10.74990082",34000,1959,TRUE,FALSE
2003,152,"NC State","Wolfpack","NCST","North Carolina St.","NCST","NC State","ACC",NA,"#EF1216","#231f20",3670,"Carter-Finley Stadium","Raleigh","NC","27695","US","America/New_York",35.8008001,-78.7195655,"117.0089951",58000,1966,FALSE,FALSE
2003,158,"Nebraska","Cornhuskers","NEB",NA,"NEB","Nebraska","Big 12","North","#F20017","#f5f1e7",3834,"Memorial Stadium","Lincoln","NE","68588","US","America/Chicago",40.820682,-96.705594,"354.9318848",85458,1923,FALSE,FALSE
2003,2440,"Nevada","Wolf Pack","NEV",NA,"NEV","Nevada","Western Athletic",NA,"#153E5F","#8e9295",3816,"Mackay Stadium","Reno","NV","89557","US","America/Los_Angeles",39.5469459,-119.8175435,"1406.57605",27000,1966,FALSE,FALSE
2003,167,"New Mexico","Lobos","UNM",NA,"UNM","New Mexico","Mountain West",NA,"#000000","#231f20",3971,"University Stadium","Albuquerque","NM","87131","US","America/Denver",35.0669479,-106.6283225,"1554.471924",39224,1960,FALSE,FALSE
2003,166,"New Mexico State","Aggies","NMSU",NA,"NMSU","New Mexico St","Sun Belt",NA,"#891216","#000000",3601,"Aggie Memorial Stadium","Las Cruces","NM","88003","US","America/Denver",32.2796202,-106.7411148,"1208.201294",28853,1978,FALSE,FALSE
2003,153,"North Carolina","Tar Heels","UNC",NA,"UNC","UNC","ACC",NA,"#99bfe5","#13294b",3787,"Kenan Memorial Stadium","Chapel Hill","NC","27515","US","America/New_York",35.9069294,-79.0478889,"127.7569809",50500,1927,FALSE,FALSE
2003,2459,"Northern Illinois","Huskies","NIU",NA,"NIU","N Illinois","Mid-American","West","#F1122C","#cc0000",3764,"Brigham Field at Huskie Stadium","DeKalb","IL","60115","US","America/Chicago",41.9339586,-88.7778357,"267.4530029",23595,1965,FALSE,FALSE
2003,249,"North Texas","Mean Green","UNT",NA,"UNT","North Texas","Sun Belt",NA,"#00853D","#000000",3825,"Apogee Stadium","Denton","TX","76210","US","America/Chicago",33.203899,-97.159245,"198.6871948",30850,2011,FALSE,FALSE
2003,77,"Northwestern","Wildcats","NW",NA,"NW","Northwestern","Big Ten",NA,"#372286","#d6cac1",3911,"Ryan Field","Evanston","IL","60208","US","America/Chicago",42.0653994,-87.6924751,"181.2376099",47130,1926,FALSE,FALSE
2003,87,"Notre Dame","Fighting Irish","ND",NA,"ND","Notre Dame","FBS Independents",NA,"#00122b","#ae9142",3855,"Notre Dame Stadium","Notre Dame","IN","46556","US","America/Indiana/Indianapolis",41.698378,-86.2339425,"222.645401",80795,1930,FALSE,FALSE
2003,195,"Ohio","Bobcats","OHIO",NA,"OHIO","Ohio","Mid-American","East","#295A29","#e4bb85",3876,"Peden Stadium","Athens","OH","45701","US","America/New_York",39.3212794,-82.1034315,"194.230896",24000,1929,FALSE,FALSE
2003,194,"Ohio State","Buckeyes","OSU",NA,"OSU","OSU","Big Ten",NA,"#DE3121","#666666",3861,"Ohio Stadium","Columbus","OH","43210","US","America/New_York",40.0016447,-83.0197266,"216.6770325",102780,1922,FALSE,FALSE
2003,201,"Oklahoma","Sooners","OKLA",NA,"OKLA","Oklahoma","Big 12","South","#7b0000","#cccccc",3835,"Gaylord Family Oklahoma Memorial Stadium","Norman","OK","73019","US","America/Chicago",35.2058537,-97.4423145,"355.0962524",86112,1925,FALSE,FALSE
2003,197,"Oklahoma State","Cowboys","OKST",NA,"OKST","Oklahoma State","Big 12","South","#FF6500","#ff9900",3646,"Boone Pickens Stadium","Stillwater","OK","74078","US","America/Chicago",36.125673,-97.066513,"276.4808655",55509,1919,FALSE,FALSE
2003,145,"Ole Miss","Rebels","MISS",NA,"MISS","Ole Miss","SEC","West","#001148","#00205b",3974,"Vaught-Hemingway Stadium","Oxford","MS","38677","US","America/Chicago",34.3619837,-89.5342076,"146.8517151",64038,1915,TRUE,FALSE
2003,2483,"Oregon","Ducks","ORE",NA,"ORE","Oregon","Pac-10",NA,"#044520","#fee123",3626,"Autzen Stadium","Eugene","OR","97401","US","America/Los_Angeles",44.0582712,-123.0684883,"127.4198303",54000,1967,FALSE,FALSE
2003,204,"Oregon State","Beavers","ORST",NA,"ORST","Oregon State","Pac-10",NA,"#c34500","#dea076",3893,"Reser Stadium","Corvallis","OR","97331","US","America/Los_Angeles",44.5594559,-123.2814341,"66.90744781",43363,1953,FALSE,FALSE
